{"pageProps":{"json":[{"id":2558683,"title":"대한민국무용대상","addr1":"서울특별시 종로구 대학로8길 7 한국문예회관","latitude":37.5812640855,"longitude":127.0029878163,"eventstartdate":"20221209","eventenddate":"20221209","firstimage":"","firstimage2":"","tel":"02-744-8066","titleFull":"대한민국무용대상"},{"id":293084,"title":"영동난계국악축제","addr1":"충청북도 영동군 영동읍 중앙로 11","latitude":36.1770756832,"longitude":127.7729881364,"eventstartdate":"20221006","eventenddate":"20221009","firstimage":"http://tong.visitkorea.or.kr/cms/resource/01/2689801_image2_1.png","firstimage2":"http://tong.visitkorea.or.kr/cms/resource/01/2689801_image2_1.png","tel":"043-740-3213","titleFull":"영동난계국악축제"},{"id":2761411,"title":"2022 금천하모니축제","addr1":"서울특별시 금천구 시흥대로73길 67 엠메디컬타워","latitude":37.4559961627,"longitude":126.8957622299,"eventstartdate":"20221013","eventenddate":"20221016","firstimage":"http://tong.visitkorea.or.kr/cms/resource/66/2862566_image2_1.png","firstimage2":"http://tong.visitkorea.or.kr/cms/resource/66/2862566_image3_1.png","tel":"02-809-8240","titleFull":"2022 금천하모니축제"},{"id":2861710,"title":"렛츠런캠핑파크","addr1":"경기도 과천시 경마공원대로 107","latitude":37.444127336,"longitude":127.008649511,"eventstartdate":"20221001","eventenddate":"20221023","firstimage":"http://tong.visitkorea.or.kr/cms/resource/09/2861709_image2_1.jpg","firstimage2":"http://tong.visitkorea.or.kr/cms/resource/09/2861709_image3_1.jpg","tel":"1566-3333","titleFull":"렛츠런캠핑파크"},{"id":2843652,"title":"2022 전국풍물 상설공연 <어울마당 풍물세상>","addr1":"충청남도 계룡시 신도안면 정장리","latitude":36.3066458062,"longitude":127.2377157212,"eventstartdate":"20220903","eventenddate":"20221105","firstimage":"http://tong.visitkorea.or.kr/cms/resource/95/2843595_image2_1.jpg","firstimage2":"http://tong.visitkorea.or.kr/cms/resource/95/2843595_image3_1.jpg","tel":"02-580-3263","titleFull":"2022 전국풍물 상설공연 <어울마당 풍물세상>"},{"id":2612274,"title":"2022 관악강감찬축제","addr1":"서울특별시 관악구 낙성대로 77","latitude":37.4716399155,"longitude":126.9587338341,"eventstartdate":"20221014","eventenddate":"20221016","firstimage":"http://tong.visitkorea.or.kr/cms/resource/69/2862369_image2_1.jpg","firstimage2":"http://tong.visitkorea.or.kr/cms/resource/69/2862369_image3_1.jpg","tel":"02-828-5762","titleFull":"2022 관악강감찬축제"},{"id":141236,"title":"2022년 생거진천 농·예·문 통합축제","addr1":"충청북도 진천군 문화로 79 진천문화원","latitude":36.850073171,"longitude":127.4398938112,"eventstartdate":"20221006","eventenddate":"20221009","firstimage":"http://tong.visitkorea.or.kr/cms/resource/71/2862371_image2_1.jpg","firstimage2":"http://tong.visitkorea.or.kr/cms/resource/71/2862371_image3_1.jpg","tel":"043-533-2742 / 2744","titleFull":"2022년 생거진천 농·예·문 통합축제"},{"id":2855150,"title":"한빛야시장:가을 감성 주(酒)간","addr1":"대전광역시 유성구 대덕대로 480 대전 C.T센터, 스튜디오큐브","latitude":36.3759931713,"longitude":127.3802705364,"eventstartdate":"20220923","eventenddate":"20221023","firstimage":"http://tong.visitkorea.or.kr/cms/resource/75/2861275_image2_1.jpg","firstimage2":"http://tong.visitkorea.or.kr/cms/resource/75/2861275_image3_1.jpg","tel":"042-222-8009","titleFull":"한빛야시장:가을 감성 주(酒)간"},{"id":2560781,"title":"2022 동인천 낭만시장","addr1":"인천 동구 송현동 70-10","latitude":37.4766807577,"longitude":126.6325328678,"eventstartdate":"20221029","eventenddate":"20221030","firstimage":"http://tong.visitkorea.or.kr/cms/resource/59/2861859_image2_1.jpg","firstimage2":"http://tong.visitkorea.or.kr/cms/resource/59/2861859_image3_1.jpg","tel":"032-899-7424","titleFull":"2022 동인천 낭만시장"},{"id":2861717,"title":"2022 배다리 책피움 한마당","addr1":"인천광역시 동구 금곡로 18-10","latitude":37.472567434,"longitude":126.6374741978,"eventstartdate":"20221001","eventenddate":"20221001","firstimage":"http://tong.visitkorea.or.kr/cms/resource/16/2861716_image2_1.jpg","firstimage2":"http://tong.visitkorea.or.kr/cms/resource/16/2861716_image3_1.jpg","tel":"032-440-7874","titleFull":"2022 배다리 책피움 한마당"},{"id":2408959,"title":"2022 인천개항장 문화재 야행","addr1":"인천광역시 중구 신포로27번길 80 중구청","latitude":37.4735225945,"longitude":126.6213645301,"eventstartdate":"20221015","eventenddate":"20221016","firstimage":"http://tong.visitkorea.or.kr/cms/resource/61/2862361_image2_1.jpg","firstimage2":"http://tong.visitkorea.or.kr/cms/resource/61/2862361_image3_1.jpg","tel":"02-6961-5435","titleFull":"2022 인천개항장 문화재 야행"},{"id":1087020,"title":"2022 의좋은 형제 축제","addr1":"충청남도 예산군 대흥면 의좋은형제길 3","latitude":36.6065758233,"longitude":126.7922087858,"eventstartdate":"20221105","eventenddate":"20221106","firstimage":"http://tong.visitkorea.or.kr/cms/resource/48/2861748_image2_1.jpg","firstimage2":"http://tong.visitkorea.or.kr/cms/resource/48/2861748_image3_1.jpg","tel":"010-2563-0139","titleFull":"2022 의좋은 형제 축제"},{"id":2862360,"title":"영종 씨사이드파크 음악회","addr1":"인천광역시 중구 하늘달빛로2번길 6 씨사이드파크 관리사무실","latitude":37.4818067643,"longitude":126.5658249252,"eventstartdate":"20221029","eventenddate":"20221029","firstimage":"http://tong.visitkorea.or.kr/cms/resource/59/2862359_image2_1.jpg","firstimage2":"http://tong.visitkorea.or.kr/cms/resource/59/2862359_image3_1.jpg","tel":"032-899-7427","titleFull":"영종 씨사이드파크 음악회"},{"id":2862358,"title":"노원달빛산책","addr1":"서울특별시 노원구 동일로 1308-1 중계역","latitude":37.6449411189,"longitude":127.0642637521,"eventstartdate":"20221014","eventenddate":"20221030","firstimage":"http://tong.visitkorea.or.kr/cms/resource/57/2862357_image2_1.jpg","firstimage2":"http://tong.visitkorea.or.kr/cms/resource/57/2862357_image3_1.jpg","tel":"02-2289-3464","titleFull":"노원달빛산책"},{"id":679773,"title":"난타 (제주)","addr1":"제주특별자치도 제주시 선돌목동길 56-26","latitude":33.4458561473,"longitude":126.5479222453,"eventstartdate":"20210101","eventenddate":"20221231","firstimage":"","firstimage2":"","tel":"064-723-8878","titleFull":"난타 (제주)"},{"id":2862352,"title":"2022 감고당길 공예마켓","addr1":"서울특별시 종로구 송현동","latitude":37.5779529898,"longitude":126.9824147854,"eventstartdate":"20221001","eventenddate":"20221023","firstimage":"http://tong.visitkorea.or.kr/cms/resource/47/2862347_image2_1.jpg","firstimage2":"http://tong.visitkorea.or.kr/cms/resource/47/2862347_image3_1.jpg","tel":"070-4640-5998","titleFull":"2022 감고당길 공예마켓"},{"id":506616,"title":"2022 서귀포칠십리축제","addr1":"제주특별자치도 서귀포시 칠십리로 120-12","latitude":33.241942872,"longitude":126.5675084795,"eventstartdate":"20221014","eventenddate":"20221016","firstimage":"http://tong.visitkorea.or.kr/cms/resource/46/2862346_image2_1.jpg","firstimage2":"http://tong.visitkorea.or.kr/cms/resource/46/2862346_image3_1.jpg","tel":"064-760-3942 / 서귀포시 관광진흥과","titleFull":"2022 서귀포칠십리축제"},{"id":2860545,"title":"제1회 익산 보물찾기 깜짝 축제","addr1":"전라북도 익산시 선화로63길 16 PR쥬얼리","latitude":35.9478099718,"longitude":126.9745209769,"eventstartdate":"20221028","eventenddate":"20221030","firstimage":"http://tong.visitkorea.or.kr/cms/resource/05/2860505_image2_1.jpg","firstimage2":"http://tong.visitkorea.or.kr/cms/resource/05/2860505_image3_1.jpg","tel":"063-853-6785","titleFull":"제1회 익산 보물찾기 깜짝 축제"},{"id":921260,"title":"곰소젓갈 발효축제","addr1":"전라북도 부안군 곰소7길 16 곰소젓갈발효식품센터","latitude":35.5875003663,"longitude":126.6126819397,"eventstartdate":"20221007","eventenddate":"20221009","firstimage":"http://tong.visitkorea.or.kr/cms/resource/38/2862338_image2_1.jpg","firstimage2":"http://tong.visitkorea.or.kr/cms/resource/38/2862338_image3_1.jpg","tel":"070-7954-2234","titleFull":"곰소젓갈 발효축제"},{"id":2861656,"title":"관악형 광장문화 [상상하는 대로]","addr1":"서울특별시 관악구 봉천로 505 서울원당초등학교","latitude":37.4808110219,"longitude":126.9559060559,"eventstartdate":"20221009","eventenddate":"20221016","firstimage":"http://tong.visitkorea.or.kr/cms/resource/04/2860904_image2_1.jpg","firstimage2":"http://tong.visitkorea.or.kr/cms/resource/04/2860904_image3_1.jpg","tel":"02-879-5581","titleFull":"관악형 광장문화 [상상하는 대로]"},{"id":2852199,"title":"2022 순천문화도시박람회","addr1":"전라남도 순천시 행동","latitude":34.9548367139,"longitude":127.4830182188,"eventstartdate":"20221014","eventenddate":"20221016","firstimage":"http://tong.visitkorea.or.kr/cms/resource/36/2862336_image2_1.jpg","firstimage2":"http://tong.visitkorea.or.kr/cms/resource/36/2862336_image3_1.jpg","tel":"061-749-3577","titleFull":"2022 순천문화도시박람회"},{"id":2858880,"title":"도깨비할로윈","addr1":"서울특별시 노원구 동일로180길 53 본향성결교회","latitude":37.6229161347,"longitude":127.0771743155,"eventstartdate":"20221027","eventenddate":"20221030","firstimage":"http://tong.visitkorea.or.kr/cms/resource/26/2862326_image2_1.jpg","firstimage2":"http://tong.visitkorea.or.kr/cms/resource/26/2862326_image3_1.jpg","tel":"02-976-4144","titleFull":"도깨비할로윈"},{"id":2770031,"title":"2022 부산 사회적경제한마당","addr1":"부산광역시 중구 광복로 72-1","latitude":35.0986454267,"longitude":129.0327345363,"eventstartdate":"20221015","eventenddate":"20221015","firstimage":"http://tong.visitkorea.or.kr/cms/resource/24/2862324_image2_1.jpg","firstimage2":"http://tong.visitkorea.or.kr/cms/resource/24/2862324_image3_1.jpg","tel":"010-6215-9078","titleFull":"2022 부산 사회적경제한마당"},{"id":2028440,"title":"한강달빛야시장","addr1":"서울특별시 서초구 신반포로11길 40 한강공원 반포 안내센터","latitude":37.5077391108,"longitude":126.9927658294,"eventstartdate":"20221022","eventenddate":"20221023","firstimage":"http://tong.visitkorea.or.kr/cms/resource/49/2848549_image2_1.jpg","firstimage2":"http://tong.visitkorea.or.kr/cms/resource/49/2848549_image3_1.jpg","tel":"02-120","titleFull":"한강달빛야시장"},{"id":2601242,"title":"도봉한글잔치","addr1":"서울특별시 도봉구 해등로32가길 16","latitude":37.6603469037,"longitude":127.0222976961,"eventstartdate":"20221009","eventenddate":"20221009","firstimage":"http://tong.visitkorea.or.kr/cms/resource/98/2862298_image2_1.jpg","firstimage2":"http://tong.visitkorea.or.kr/cms/resource/98/2862298_image3_1.jpg","tel":"02-905-4026","titleFull":"도봉한글잔치"},{"id":635451,"title":"문경사과축제","addr1":"경상북도 문경시 문경읍 문경대로 2426","latitude":36.7420889505,"longitude":128.0826336405,"eventstartdate":"20221015","eventenddate":"20221030","firstimage":"http://tong.visitkorea.or.kr/cms/resource/63/2862263_image2_1.jpg","firstimage2":"http://tong.visitkorea.or.kr/cms/resource/63/2862263_image3_1.jpg","tel":"054-571-7677","titleFull":"문경사과축제"},{"id":2828431,"title":"2022 한강페스티벌","addr1":"서울특별시 성동구 강변북로 257 한강사업본부","latitude":37.5390085797,"longitude":127.0416854892,"eventstartdate":"20221001","eventenddate":"20221016","firstimage":"http://tong.visitkorea.or.kr/cms/resource/36/2860436_image2_1.jpg","firstimage2":"http://tong.visitkorea.or.kr/cms/resource/36/2860436_image3_1.jpg","tel":"02-120","titleFull":"2022 한강페스티벌"},{"id":2743853,"title":"광주 정신건강 문화행사","addr1":"","latitude":0,"longitude":0,"eventstartdate":"20221007","eventenddate":"20221020","firstimage":"http://tong.visitkorea.or.kr/cms/resource/29/2861929_image2_1.jpg","firstimage2":"http://tong.visitkorea.or.kr/cms/resource/29/2861929_image3_1.jpg","tel":"062)600-1951~4","titleFull":"광주 정신건강 문화행사"},{"id":140880,"title":"제63회 한국민속예술제","addr1":"충청남도 공주시 고마나루길 90 고마문화복합센터","latitude":36.4666418564,"longitude":127.1075925175,"eventstartdate":"20221001","eventenddate":"20221030","firstimage":"http://tong.visitkorea.or.kr/cms/resource/12/2861912_image2_1.jpg","firstimage2":"http://tong.visitkorea.or.kr/cms/resource/12/2861912_image3_1.jpg","tel":"02-580-3278","titleFull":"제63회 한국민속예술제"},{"id":2640575,"title":"2022 월곶 저잣거리 역사문화 관광축제","addr1":"경기도 김포시 군하로276번길 20","latitude":37.717018032,"longitude":126.5524918162,"eventstartdate":"20221001","eventenddate":"20221001","firstimage":"http://tong.visitkorea.or.kr/cms/resource/94/2861894_image2_1.jpeg","firstimage2":"http://tong.visitkorea.or.kr/cms/resource/94/2861894_image3_1.jpeg","tel":"031-980-5113","titleFull":"2022 월곶 저잣거리 역사문화 관광축제"},{"id":2855638,"title":"이월드 비비의 해피 할로윈","addr1":"대구광역시 달서구 두류공원로 200","latitude":35.8550515822,"longitude":128.5601217577,"eventstartdate":"20220917","eventenddate":"20221031","firstimage":"http://tong.visitkorea.or.kr/cms/resource/33/2855633_image2_1.jpg","firstimage2":"http://tong.visitkorea.or.kr/cms/resource/33/2855633_image3_1.jpg","tel":"053-620-0001","titleFull":"이월드 비비의 해피 할로윈"},{"id":2740046,"title":"2022 한복문화주간","addr1":"서울특별시 중구 다동","latitude":37.5886545092,"longitude":126.981614555,"eventstartdate":"20221017","eventenddate":"20221023","firstimage":"http://tong.visitkorea.or.kr/cms/resource/00/2846400_image2_1.jpg","firstimage2":"http://tong.visitkorea.or.kr/cms/resource/00/2846400_image3_1.jpg","tel":"02-398-1621","titleFull":"2022 한복문화주간"},{"id":2375382,"title":"제27회 대덕제 대구앞산축제","addr1":"대구광역시 남구 앞산순환로 365","latitude":35.8324431329,"longitude":128.5657357794,"eventstartdate":"20221001","eventenddate":"20221002","firstimage":"http://tong.visitkorea.or.kr/cms/resource/65/2861865_image2_1.jpg","firstimage2":"http://tong.visitkorea.or.kr/cms/resource/65/2861865_image3_1.jpg","tel":"053-664-3262","titleFull":"제27회 대덕제 대구앞산축제"},{"id":2861864,"title":"피나클랜드 왕새우 축제","addr1":"충청남도 아산시 월선길 20-42","latitude":36.8725197718,"longitude":126.9263422708,"eventstartdate":"20221001","eventenddate":"20221130","firstimage":"http://tong.visitkorea.or.kr/cms/resource/63/2861863_image2_1.jpeg","firstimage2":"http://tong.visitkorea.or.kr/cms/resource/63/2861863_image3_1.jpeg","tel":"041-541-2582","titleFull":"피나클랜드 왕새우 축제"},{"id":1019728,"title":"대구 동성로축제","addr1":"대구광역시 중구 동성로2가","latitude":35.8708421283,"longitude":128.5963236849,"eventstartdate":"20221021","eventenddate":"20221023","firstimage":"http://tong.visitkorea.or.kr/cms/resource/58/2861858_image2_1.jpg","firstimage2":"http://tong.visitkorea.or.kr/cms/resource/58/2861858_image3_1.jpg","tel":"053-215-1234","titleFull":"대구 동성로축제"},{"id":2861785,"title":"미생페스티벌","addr1":"서울특별시 구로구 신도림동","latitude":37.5093537592,"longitude":126.8904139959,"eventstartdate":"20221001","eventenddate":"20221001","firstimage":"http://tong.visitkorea.or.kr/cms/resource/82/2861782_image2_1.jpg","firstimage2":"http://tong.visitkorea.or.kr/cms/resource/82/2861782_image3_1.jpg","tel":"010-5790-9760","titleFull":"미생페스티벌"},{"id":2508997,"title":"광명동굴 대한민국 와인페스티벌 2022","addr1":"경기도 광명시 가학로85번길 142","latitude":37.4246631131,"longitude":126.8634188301,"eventstartdate":"20220930","eventenddate":"20221003","firstimage":"http://tong.visitkorea.or.kr/cms/resource/60/2861760_image2_1.jpg","firstimage2":"http://tong.visitkorea.or.kr/cms/resource/60/2861760_image3_1.jpg","tel":"gmwinefestival22@gmail.com","titleFull":"광명동굴 대한민국 와인페스티벌 2022"},{"id":2861739,"title":"서울뷰티먼스","addr1":"","latitude":0,"longitude":0,"eventstartdate":"20220930","eventenddate":"20221102","firstimage":"http://tong.visitkorea.or.kr/cms/resource/34/2861734_image2_1.jpg","firstimage2":"http://tong.visitkorea.or.kr/cms/resource/34/2861734_image3_1.jpg","tel":"02-550-2645","titleFull":"서울뷰티먼스"},{"id":2561700,"title":"영산강 서창들녘 억새축제","addr1":"광주광역시 서구 서창둑길 377","latitude":35.1384854339,"longitude":126.8287823667,"eventstartdate":"20221007","eventenddate":"20221010","firstimage":"http://tong.visitkorea.or.kr/cms/resource/26/2861726_image2_1.jpg","firstimage2":"http://tong.visitkorea.or.kr/cms/resource/26/2861726_image3_1.jpg","tel":"062-350-4792","titleFull":"영산강 서창들녘 억새축제"},{"id":2861721,"title":"가산수피아 플라워 페스티발","addr1":"경상북도 칠곡군 학하들안2길 105","latitude":36.0879487754,"longitude":128.4841497439,"eventstartdate":"20221001","eventenddate":"20221031","firstimage":"http://tong.visitkorea.or.kr/cms/resource/18/2861718_image2_1.jpg","firstimage2":"http://tong.visitkorea.or.kr/cms/resource/18/2861718_image3_1.jpg","tel":"054-971-9861","titleFull":"가산수피아 플라워 페스티발"},{"id":2861715,"title":"서울패션위크","addr1":"서울특별시 중구 을지로 281","latitude":37.566107632,"longitude":127.0095709797,"eventstartdate":"20221011","eventenddate":"20221015","firstimage":"http://tong.visitkorea.or.kr/cms/resource/13/2861713_image2_1.jpg","firstimage2":"http://tong.visitkorea.or.kr/cms/resource/13/2861713_image3_1.jpg","tel":"02-518-2133","titleFull":"서울패션위크"},{"id":2861701,"title":"제4회 앵콜 더 마이크 : 직장인편","addr1":"서울특별시 구로구 신도림동","latitude":37.5093537592,"longitude":126.8904139959,"eventstartdate":"20221001","eventenddate":"20221001","firstimage":"http://tong.visitkorea.or.kr/cms/resource/93/2861693_image2_1.jpg","firstimage2":"http://tong.visitkorea.or.kr/cms/resource/93/2861693_image3_1.jpg","tel":"010-5790-9760","titleFull":"제4회 앵콜 더 마이크 : 직장인편"},{"id":2861686,"title":"사표던지기대회 in 서울","addr1":"서울특별시 구로구 신도림동","latitude":37.5093537592,"longitude":126.8904139959,"eventstartdate":"20221001","eventenddate":"20221001","firstimage":"http://tong.visitkorea.or.kr/cms/resource/85/2861685_image2_1.jpg","firstimage2":"http://tong.visitkorea.or.kr/cms/resource/85/2861685_image3_1.jpg","tel":"010-5790-9760","titleFull":"사표던지기대회 in 서울"},{"id":2861680,"title":"제5회 전주국제단편영화제","addr1":"전라북도 전주시 완산구 전주객사3길 74-25","latitude":35.8210967513,"longitude":127.1422621184,"eventstartdate":"20220929","eventenddate":"20221003","firstimage":"http://tong.visitkorea.or.kr/cms/resource/76/2861676_image2_1.jpg","firstimage2":"http://tong.visitkorea.or.kr/cms/resource/76/2861676_image3_1.jpg","tel":"063-253-4045","titleFull":"제5회 전주국제단편영화제"},{"id":2737313,"title":"2022섬진강국제실험예술제(SIEAF)","addr1":"전라남도 곡성군 입면 제월리","latitude":35.3181412006,"longitude":127.2178156522,"eventstartdate":"20221025","eventenddate":"20221030","firstimage":"http://tong.visitkorea.or.kr/cms/resource/64/2861664_image2_1.jpg","firstimage2":"http://tong.visitkorea.or.kr/cms/resource/64/2861664_image3_1.jpg","tel":"010-2344-5004","titleFull":"2022섬진강국제실험예술제(SIEAF)"},{"id":2405329,"title":"종로한복축제","addr1":"서울특별시 종로구 세종대로 172 5호선 광화문역","latitude":37.5716786179,"longitude":126.9767821434,"eventstartdate":"20221008","eventenddate":"20221009","firstimage":"http://tong.visitkorea.or.kr/cms/resource/24/2861624_image2_1.jpg","firstimage2":"http://tong.visitkorea.or.kr/cms/resource/24/2861624_image3_1.jpg","tel":"02-6263-1185","titleFull":"종로한복축제"},{"id":2859297,"title":"페스티벌 광명","addr1":"경기도 광명시 철산로 13 철산역","latitude":37.4761516608,"longitude":126.8680169685,"eventstartdate":"20221008","eventenddate":"20221009","firstimage":"http://tong.visitkorea.or.kr/cms/resource/96/2858896_image2_1.jpg","firstimage2":"http://tong.visitkorea.or.kr/cms/resource/96/2858896_image3_1.jpg","tel":"1688-3399","titleFull":"페스티벌 광명"},{"id":2681701,"title":"한국문화축제","addr1":"서울특별시 송파구 올림픽로 25 서울종합운동장","latitude":37.5114817947,"longitude":127.0735805889,"eventstartdate":"20220930","eventenddate":"20221008","firstimage":"http://tong.visitkorea.or.kr/cms/resource/59/2849859_image2_1.jpg","firstimage2":"http://tong.visitkorea.or.kr/cms/resource/59/2849859_image3_1.jpg","tel":"02-6830-7902","titleFull":"한국문화축제"},{"id":2861464,"title":"한국 웰니스관광 페스타","addr1":"전라남도 순천시 국가정원1호길 47 순천만국제습지센터","latitude":34.9286399458,"longitude":127.4997174181,"eventstartdate":"20221001","eventenddate":"20221031","firstimage":"http://tong.visitkorea.or.kr/cms/resource/31/2861431_image2_1.jpg","firstimage2":"http://tong.visitkorea.or.kr/cms/resource/31/2861431_image3_1.jpg","tel":"wellnessfesta@gmail.com","titleFull":"한국 웰니스관광 페스타"},{"id":623476,"title":"부산국제영화제","addr1":"부산광역시 해운대구 수영강변대로 120","latitude":35.170794647,"longitude":129.1270576924,"eventstartdate":"20221005","eventenddate":"20221014","firstimage":"","firstimage2":"","tel":"1666-9177","titleFull":"부산국제영화제"},{"id":2846873,"title":"2022 천안 빵빵데이","addr1":"충청남도 천안시 서북구 번영로 156 천안시청","latitude":36.8146491745,"longitude":127.1124242843,"eventstartdate":"20221009","eventenddate":"20221010","firstimage":"http://tong.visitkorea.or.kr/cms/resource/41/2846841_image2_1.jpg","firstimage2":"http://tong.visitkorea.or.kr/cms/resource/41/2846841_image3_1.jpg","tel":"041-561-0429","titleFull":"2022 천안 빵빵데이"},{"id":1748721,"title":"포항스틸아트페스티벌","addr1":"경상북도 포항시 남구 송도동","latitude":36.0436427707,"longitude":129.3764307423,"eventstartdate":"20221015","eventenddate":"20221029","firstimage":"http://tong.visitkorea.or.kr/cms/resource/24/2861324_image2_1.jpg","firstimage2":"http://tong.visitkorea.or.kr/cms/resource/24/2861324_image3_1.jpg","tel":"054-289-7853~4","titleFull":"포항스틸아트페스티벌"},{"id":1718424,"title":"2022영주 무섬외나무다리축제","addr1":"경상북도 영주시 문수면 무섬로234번길 41","latitude":36.7316057476,"longitude":128.6213025371,"eventstartdate":"20221001","eventenddate":"20221002","firstimage":"http://tong.visitkorea.or.kr/cms/resource/64/2859564_image2_1.jpg","firstimage2":"http://tong.visitkorea.or.kr/cms/resource/64/2859564_image3_1.jpg","tel":"054-630-8708 ~ 8709","titleFull":"2022영주 무섬외나무다리축제"},{"id":293185,"title":"이태원지구촌축제 2022","addr1":"서울특별시 용산구 이태원로27가길 42","latitude":37.5350998236,"longitude":126.9928428264,"eventstartdate":"20221015","eventenddate":"20221016","firstimage":"http://tong.visitkorea.or.kr/cms/resource/87/2861287_image2_1.jpg","firstimage2":"http://tong.visitkorea.or.kr/cms/resource/87/2861287_image3_1.jpg","tel":"itaewon2022@naver.com","titleFull":"이태원지구촌축제 2022"},{"id":2757747,"title":"제17회 부산세계시민축제(Global Gathering 2022)","addr1":"부산광역시 동구 중앙대로 210","latitude":35.1151853926,"longitude":129.040861156,"eventstartdate":"20221002","eventenddate":"20221002","firstimage":"http://tong.visitkorea.or.kr/cms/resource/81/2861281_image2_1.jpg","firstimage2":"http://tong.visitkorea.or.kr/cms/resource/81/2861281_image3_1.jpg","tel":"051-711-6847/6845","titleFull":"제17회 부산세계시민축제(Global Gathering 2022)"},{"id":631257,"title":"전주비빔밥축제","addr1":"전라북도 전주시 완산구 향교길 139","latitude":35.8129451491,"longitude":127.1565360613,"eventstartdate":"20221006","eventenddate":"20221010","firstimage":"http://tong.visitkorea.or.kr/cms/resource/80/2861280_image2_1.jpg","firstimage2":"http://tong.visitkorea.or.kr/cms/resource/80/2861280_image3_1.jpg","tel":"063-283-1141","titleFull":"전주비빔밥축제"},{"id":2845956,"title":"백두대간 산림치유 페스티벌","addr1":"경상북도 영주시 테라피로 209 건강증진센터","latitude":36.8577690602,"longitude":128.4726898984,"eventstartdate":"20220930","eventenddate":"20221002","firstimage":"http://tong.visitkorea.or.kr/cms/resource/76/2861276_image2_1.jpg","firstimage2":"http://tong.visitkorea.or.kr/cms/resource/76/2861276_image3_1.jpg","tel":"054-639-3400","titleFull":"백두대간 산림치유 페스티벌"},{"id":2759022,"title":"2022 화성 학생동아리 축제","addr1":"경기도 화성시 동탄공원로2길 22","latitude":37.2056892805,"longitude":127.0635956544,"eventstartdate":"20221022","eventenddate":"20221022","firstimage":"http://tong.visitkorea.or.kr/cms/resource/95/2858895_image2_1.jpg","firstimage2":"http://tong.visitkorea.or.kr/cms/resource/95/2858895_image3_1.jpg","tel":"화성교육협력지원센터 지역교육공동체팀 031-898-5074","titleFull":"2022 화성 학생동아리 축제"},{"id":2861267,"title":"제 2회 뚜벅위크: 도망걷자‍","addr1":"","latitude":0,"longitude":0,"eventstartdate":"20221017","eventenddate":"20221023","firstimage":"http://tong.visitkorea.or.kr/cms/resource/66/2861266_image2_1.jpg","firstimage2":"http://tong.visitkorea.or.kr/cms/resource/66/2861266_image3_1.jpg","tel":"010-3918-4686","titleFull":"제 2회 뚜벅위크: 도망걷자‍"},{"id":638576,"title":"2022 대한민국 국향대전","addr1":"전라남도 함평군 함장로 1160 함평엑스포공원(축제장)","latitude":35.0583504774,"longitude":126.5224197932,"eventstartdate":"20221021","eventenddate":"20221106","firstimage":"http://tong.visitkorea.or.kr/cms/resource/32/2856432_image2_1.jpg","firstimage2":"http://tong.visitkorea.or.kr/cms/resource/32/2856432_image3_1.jpg","tel":"061-320-2245","titleFull":"2022 대한민국 국향대전"},{"id":2672227,"title":"DMZ 콘서트","addr1":"경기도 파주시 문산읍 마정리","latitude":37.8923537426,"longitude":126.7431138404,"eventstartdate":"20220924","eventenddate":"20221002","firstimage":"http://tong.visitkorea.or.kr/cms/resource/14/2859214_image2_1.jpg","firstimage2":"http://tong.visitkorea.or.kr/cms/resource/14/2859214_image3_1.jpg","tel":"031-853-6496","titleFull":"DMZ 콘서트"},{"id":2858866,"title":"남원문화재야행 '광한청허부 옥황상제 달나라 궁전으로 초대'","addr1":"전라북도 남원시 요천로 1447 광한루","latitude":35.4021539472,"longitude":127.3799713796,"eventstartdate":"20220930","eventenddate":"20221002","firstimage":"http://tong.visitkorea.or.kr/cms/resource/54/2858854_image2_1.jpg","firstimage2":"http://tong.visitkorea.or.kr/cms/resource/54/2858854_image3_1.jpg","tel":"063-636-1855","titleFull":"남원문화재야행 '광한청허부 옥황상제 달나라 궁전으로 초대'"},{"id":2861078,"title":"2022 춘천문화재야행","addr1":"강원도 춘천시 시청길 11 춘천시청","latitude":37.8810508584,"longitude":127.7293935081,"eventstartdate":"20221007","eventenddate":"20221008","firstimage":"http://tong.visitkorea.or.kr/cms/resource/67/2861067_image2_1.jpg","firstimage2":"http://tong.visitkorea.or.kr/cms/resource/67/2861067_image3_1.jpg","tel":"02-2038-8938","titleFull":"2022 춘천문화재야행"},{"id":574014,"title":"목포항구축제","addr1":"전라남도 목포시 해안로 182 목포항연안여객터미널","latitude":34.782046029,"longitude":126.3841998359,"eventstartdate":"20221014","eventenddate":"20221016","firstimage":"http://tong.visitkorea.or.kr/cms/resource/46/2861046_image2_1.jpg","firstimage2":"http://tong.visitkorea.or.kr/cms/resource/46/2861046_image3_1.jpg","tel":"061-270-8431","titleFull":"목포항구축제"},{"id":2861040,"title":"2022 강북문화제 [일상문화도시 페스티벌 '강북Festa']","addr1":"서울특별시 강북구 월계로 173 북서울꿈의숲","latitude":37.619724251,"longitude":127.0445440464,"eventstartdate":"20221018","eventenddate":"20221022","firstimage":"http://tong.visitkorea.or.kr/cms/resource/38/2861038_image2_1.jpg","firstimage2":"http://tong.visitkorea.or.kr/cms/resource/38/2861038_image3_1.jpg","tel":"02-994-8547","titleFull":"2022 강북문화제 [일상문화도시 페스티벌 '강북Festa']"},{"id":2860991,"title":"2022 ZER01NE DAY","addr1":"서울특별시 성동구 연무장15길 11 태광산업","latitude":37.5423085165,"longitude":127.0594809973,"eventstartdate":"20220930","eventenddate":"20221003","firstimage":"http://tong.visitkorea.or.kr/cms/resource/81/2860981_image2_1.jpg","firstimage2":"http://tong.visitkorea.or.kr/cms/resource/81/2860981_image3_1.jpg","tel":"zer01neday@gmail.com","titleFull":"2022 ZER01NE DAY"},{"id":623666,"title":"제25회 포천산정호수명성산 억새꽃축제","addr1":"경기도 포천시 영북면 산정리","latitude":38.080756458,"longitude":127.3391176669,"eventstartdate":"20221009","eventenddate":"20221031","firstimage":"http://tong.visitkorea.or.kr/cms/resource/84/2860884_image2_1.jpg","firstimage2":"http://tong.visitkorea.or.kr/cms/resource/84/2860884_image3_1.jpg","tel":"031-535-6936","titleFull":"제25회 포천산정호수명성산 억새꽃축제"},{"id":719595,"title":"2022 대한민국 온천대축제","addr1":"강원도 고성군 미시령옛길 1153 델피노골프&리조트","latitude":38.207524686,"longitude":128.4973942731,"eventstartdate":"20221014","eventenddate":"20221016","firstimage":"http://tong.visitkorea.or.kr/cms/resource/82/2860882_image2_1.jpg","firstimage2":"http://tong.visitkorea.or.kr/cms/resource/82/2860882_image3_1.jpg","tel":"02-518-2308","titleFull":"2022 대한민국 온천대축제"},{"id":2860868,"title":"제16회 기장붕장어축제","addr1":"부산광역시 기장군 문오성길 510","latitude":35.2986133582,"longitude":129.2602814614,"eventstartdate":"20221111","eventenddate":"20221113","firstimage":"http://tong.visitkorea.or.kr/cms/resource/53/2860853_image2_1.jpg","firstimage2":"http://tong.visitkorea.or.kr/cms/resource/53/2860853_image3_1.jpg","tel":"051-727-6810","titleFull":"제16회 기장붕장어축제"},{"id":2860852,"title":"문경 세계명상마을 <청년희망캠프>","addr1":"경상북도 문경시 원북큰마길 30-27","latitude":36.6997842827,"longitude":128.0183433689,"eventstartdate":"20221028","eventenddate":"20221030","firstimage":"http://tong.visitkorea.or.kr/cms/resource/61/2860761_image2_1.jpg","firstimage2":"http://tong.visitkorea.or.kr/cms/resource/61/2860761_image3_1.jpg","tel":"010-6408-3280","titleFull":"문경 세계명상마을 <청년희망캠프>"},{"id":2860749,"title":"2022 아양수제맥주페스티벌","addr1":"대구광역시 동구 효목동","latitude":35.8830445122,"longitude":128.6498241872,"eventstartdate":"20220930","eventenddate":"20221001","firstimage":"http://tong.visitkorea.or.kr/cms/resource/38/2860738_image2_1.jpg","firstimage2":"http://tong.visitkorea.or.kr/cms/resource/38/2860738_image3_1.jpg","tel":"010-3474-6627","titleFull":"2022 아양수제맥주페스티벌"},{"id":2858898,"title":"제 2회 빅피플 페스티벌","addr1":"대구광역시 수성구 팔현길 248 영남제일관","latitude":35.8753122114,"longitude":128.6583042116,"eventstartdate":"20221015","eventenddate":"20221015","firstimage":"http://tong.visitkorea.or.kr/cms/resource/63/2860563_image2_1.jpg","firstimage2":"http://tong.visitkorea.or.kr/cms/resource/63/2860563_image3_1.jpg","tel":"053-253-0515","titleFull":"제 2회 빅피플 페스티벌"},{"id":2852755,"title":"2022 어디서든 예술치유 - 치유도 예술로","addr1":"부산광역시 수영구 구락로123번길 20 F1963","latitude":35.177640888,"longitude":129.1154585135,"eventstartdate":"20220930","eventenddate":"20221106","firstimage":"http://tong.visitkorea.or.kr/cms/resource/54/2852754_image2_1.jpg","firstimage2":"http://tong.visitkorea.or.kr/cms/resource/54/2852754_image3_1.jpg","tel":"02-6952-4907","titleFull":"2022 어디서든 예술치유 - 치유도 예술로"},{"id":2738786,"title":"서울세계도시문화축제","addr1":"서울특별시 중구 을지로 12 시청광장지하쇼핑센터","latitude":37.5655015943,"longitude":126.9787960237,"eventstartdate":"20221022","eventenddate":"20221023","firstimage":"http://tong.visitkorea.or.kr/cms/resource/56/2859756_image2_1.jpg","firstimage2":"http://tong.visitkorea.or.kr/cms/resource/56/2859756_image3_1.jpg","tel":"070-8806-5511","titleFull":"서울세계도시문화축제"},{"id":1325331,"title":"문화다양성 축제 MAMF(맘프)2022","addr1":"경상남도 창원시 성산구 중앙대로186번길 13","latitude":35.229346668,"longitude":128.68710833,"eventstartdate":"20221021","eventenddate":"20221023","firstimage":"http://tong.visitkorea.or.kr/cms/resource/02/2860002_image2_1.jpg","firstimage2":"http://tong.visitkorea.or.kr/cms/resource/02/2860002_image3_1.jpg","tel":"055-277-8779","titleFull":"문화다양성 축제 MAMF(맘프)2022"},{"id":2859976,"title":"2022 궁궐 일상모습재현 및 체험","addr1":"서울특별시 종로구 창경궁로 185 창경궁","latitude":37.5789336838,"longitude":126.9964634775,"eventstartdate":"20221001","eventenddate":"20221005","firstimage":"http://tong.visitkorea.or.kr/cms/resource/90/2859790_image2_1.jpg","firstimage2":"http://tong.visitkorea.or.kr/cms/resource/90/2859790_image3_1.jpg","tel":"02-3210-4802","titleFull":"2022 궁궐 일상모습재현 및 체험"},{"id":2859892,"title":"행복로축제","addr1":"경기도 의정부시 의정부동","latitude":37.7407547001,"longitude":127.049315155,"eventstartdate":"20221001","eventenddate":"20221016","firstimage":"http://tong.visitkorea.or.kr/cms/resource/41/2859841_image2_1.jpg","firstimage2":"http://tong.visitkorea.or.kr/cms/resource/41/2859841_image3_1.jpg","tel":"031-828-5841","titleFull":"행복로축제"},{"id":2616325,"title":"2022 서울국악축제","addr1":"서울특별시 종로구 관수동","latitude":37.572653787,"longitude":126.9925140152,"eventstartdate":"20220930","eventenddate":"20221002","firstimage":"http://tong.visitkorea.or.kr/cms/resource/82/2858882_image2_1.jpg","firstimage2":"http://tong.visitkorea.or.kr/cms/resource/82/2858882_image3_1.jpg","tel":"070-4185-4527","titleFull":"2022 서울국악축제"},{"id":2657111,"title":"대한민국 청년미술축제 : 아트그라운드 2022","addr1":"서울특별시 마포구 와우산로 81 서봉갤러리","latitude":37.5518077456,"longitude":126.9232098101,"eventstartdate":"20221027","eventenddate":"20221031","firstimage":"http://tong.visitkorea.or.kr/cms/resource/97/2859497_image2_1.jpg","firstimage2":"http://tong.visitkorea.or.kr/cms/resource/97/2859497_image3_1.jpg","tel":"02-6958-5385 (admin@ykaa.or.kr)","titleFull":"대한민국 청년미술축제 : 아트그라운드 2022"},{"id":2859298,"title":"제1회 ACCF 애니메이션 모꼬지 <찾아라! 애니메이션 친구들>","addr1":"광주광역시 동구 문화전당로 38","latitude":35.1460861028,"longitude":126.9192936186,"eventstartdate":"20221008","eventenddate":"20221009","firstimage":"http://tong.visitkorea.or.kr/cms/resource/96/2859296_image2_1.jpg","firstimage2":"http://tong.visitkorea.or.kr/cms/resource/96/2859296_image3_1.jpg","tel":"1899-5566","titleFull":"제1회 ACCF 애니메이션 모꼬지 <찾아라! 애니메이션 친구들>"},{"id":2494069,"title":"제8회 이천체험문화축제","addr1":"경기도 이천시 신둔면 고척리","latitude":37.2935515629,"longitude":127.3847168656,"eventstartdate":"20221015","eventenddate":"20221016","firstimage":"http://tong.visitkorea.or.kr/cms/resource/64/2856664_image2_1.jpg","firstimage2":"http://tong.visitkorea.or.kr/cms/resource/64/2856664_image3_1.jpg","tel":"031) 636-2723~4","titleFull":"제8회 이천체험문화축제"},{"id":2560471,"title":"제5회 의성슈퍼푸드마늘축제","addr1":"경상북도 의성군 충효로 104 의성종합운동장","latitude":36.3566556033,"longitude":128.7017728759,"eventstartdate":"20221007","eventenddate":"20221009","firstimage":"http://tong.visitkorea.or.kr/cms/resource/16/2859216_image2_1.jpg","firstimage2":"http://tong.visitkorea.or.kr/cms/resource/16/2859216_image3_1.jpg","tel":"054-830-6578","titleFull":"제5회 의성슈퍼푸드마늘축제"},{"id":2758030,"title":"당진해나루 황토고구마 홍보판촉행사","addr1":"충청남도 당진시 고대로 33 게이트볼경기장","latitude":36.9238109032,"longitude":126.5992038092,"eventstartdate":"20221001","eventenddate":"20221002","firstimage":"http://tong.visitkorea.or.kr/cms/resource/13/2859213_image2_1.jpeg","firstimage2":"http://tong.visitkorea.or.kr/cms/resource/13/2859213_image3_1.jpeg","tel":"041-353-8817","titleFull":"당진해나루 황토고구마 홍보판촉행사"},{"id":2746930,"title":"2022년 감악산 꽃&별 여행","addr1":"경상남도 거창군 연수사길 456 감악산ARGO-F관측소","latitude":35.5901644033,"longitude":127.9199604172,"eventstartdate":"20220923","eventenddate":"20221003","firstimage":"http://tong.visitkorea.or.kr/cms/resource/40/2856940_image2_1.jpg","firstimage2":"http://tong.visitkorea.or.kr/cms/resource/40/2856940_image3_1.jpg","tel":"055-940-8227","titleFull":"2022년 감악산 꽃&별 여행"},{"id":1948539,"title":"제10회 한양도성문화제","addr1":"서울특별시 종로구 종로6가","latitude":37.5724541048,"longitude":127.0089153038,"eventstartdate":"20221001","eventenddate":"20221002","firstimage":"http://tong.visitkorea.or.kr/cms/resource/83/2859083_image2_1.jpg","firstimage2":"http://tong.visitkorea.or.kr/cms/resource/83/2859083_image3_1.jpg","tel":"070-4916-9095","titleFull":"제10회 한양도성문화제"},{"id":2856677,"title":"2022년 북촌공방축제","addr1":"서울특별시 종로구 북촌로12길 24-5","latitude":37.5824719752,"longitude":126.9861254303,"eventstartdate":"20221015","eventenddate":"20221015","firstimage":"http://tong.visitkorea.or.kr/cms/resource/76/2856676_image2_1.jpg","firstimage2":"http://tong.visitkorea.or.kr/cms/resource/76/2856676_image3_1.jpg","tel":"02-2148-1874","titleFull":"2022년 북촌공방축제"},{"id":2610057,"title":"제19회 한국청소년축제","addr1":"강원도 원주시 봉화로 1 AK플라자","latitude":37.345730499,"longitude":127.9276635071,"eventstartdate":"20221022","eventenddate":"20221022","firstimage":"http://tong.visitkorea.or.kr/cms/resource/97/2858997_image2_1.jpg","firstimage2":"http://tong.visitkorea.or.kr/cms/resource/97/2858997_image3_1.jpg","tel":"033-765-3704","titleFull":"제19회 한국청소년축제"},{"id":2726319,"title":"2022 우암 야행","addr1":"대전광역시 동구 충정로 53","latitude":36.348256078,"longitude":127.4589975829,"eventstartdate":"20221013","eventenddate":"20221014","firstimage":"http://tong.visitkorea.or.kr/cms/resource/22/2858922_image2_1.jpg","firstimage2":"http://tong.visitkorea.or.kr/cms/resource/22/2858922_image3_1.jpg","tel":"070-4267-6880","titleFull":"2022 우암 야행"},{"id":1798646,"title":"거창한마당대축제","addr1":"경상남도 거창군 심소정길 39-36 거창스포츠파크, 체육시설사업소","latitude":35.6932056374,"longitude":127.92660707,"eventstartdate":"20220929","eventenddate":"20221002","firstimage":"http://tong.visitkorea.or.kr/cms/resource/20/2858920_image2_1.png","firstimage2":"http://tong.visitkorea.or.kr/cms/resource/20/2858920_image3_1.png","tel":"055-940-8451","titleFull":"거창한마당대축제"},{"id":2858917,"title":"2022 보은 문화재 야행 '피반령 도깨비와 함께하는 인산인해 회인야행'","addr1":"충청북도 보은군 회인면 중앙리","latitude":36.4914477395,"longitude":127.5983173147,"eventstartdate":"20221028","eventenddate":"20221030","firstimage":"http://tong.visitkorea.or.kr/cms/resource/16/2858916_image2_1.jpg","firstimage2":"http://tong.visitkorea.or.kr/cms/resource/16/2858916_image3_1.jpg","tel":"070-4267-6880","titleFull":"2022 보은 문화재 야행 '피반령 도깨비와 함께하는 인산인해 회인야행'"},{"id":1389831,"title":"제18회 선인장페스티벌","addr1":"서울특별시 강남구 영동대로 513","latitude":37.5117148467,"longitude":127.0594429796,"eventstartdate":"20221011","eventenddate":"20221017","firstimage":"http://tong.visitkorea.or.kr/cms/resource/08/2858908_image2_1.jpg","firstimage2":"http://tong.visitkorea.or.kr/cms/resource/08/2858908_image3_1.jpg","tel":"031-8008-9539","titleFull":"제18회 선인장페스티벌"},{"id":2757239,"title":"제5회 전라북도무형문화재 한마당축제","addr1":"전라북도 전주시 완산구 태조로 44 경기전","latitude":35.8142143363,"longitude":127.1500366062,"eventstartdate":"20220929","eventenddate":"20221001","firstimage":"http://tong.visitkorea.or.kr/cms/resource/99/2858899_image2_1.jpg","firstimage2":"http://tong.visitkorea.or.kr/cms/resource/99/2858899_image3_1.jpg","tel":"063-237-1907","titleFull":"제5회 전라북도무형문화재 한마당축제"},{"id":2858894,"title":"성주가야산 황금들녘 메뚜기 축제","addr1":"경상북도 성주군 수륜면 수성리","latitude":35.8695431803,"longitude":128.1902234407,"eventstartdate":"20221015","eventenddate":"20221016","firstimage":"http://tong.visitkorea.or.kr/cms/resource/93/2858893_image2_1.jpg","firstimage2":"http://tong.visitkorea.or.kr/cms/resource/93/2858893_image3_1.jpg","tel":"054-930-6982","titleFull":"성주가야산 황금들녘 메뚜기 축제"},{"id":607417,"title":"2022 명량대첩축제","addr1":"전라남도 진도군 명량대첩로 7","latitude":34.5694575136,"longitude":126.303492588,"eventstartdate":"20220930","eventenddate":"20221002","firstimage":"http://tong.visitkorea.or.kr/cms/resource/92/2858892_image2_1.jpg","firstimage2":"http://tong.visitkorea.or.kr/cms/resource/92/2858892_image3_1.jpg","tel":"061-286-5265","titleFull":"2022 명량대첩축제"},{"id":2858891,"title":"2022 달빛가득 계양산성","addr1":"인천광역시 계양구 계산동","latitude":37.548051585,"longitude":26.7285328292,"eventstartdate":"20221007","eventenddate":"20221007","firstimage":"http://tong.visitkorea.or.kr/cms/resource/90/2858890_image2_1.jpg","firstimage2":"http://tong.visitkorea.or.kr/cms/resource/90/2858890_image3_1.jpg","tel":"032-450-5754","titleFull":"2022 달빛가득 계양산성"},{"id":637276,"title":"익산천만송이국화축제","addr1":"전라북도 익산시 하나로 322 중앙체육공원","latitude":35.9492655338,"longitude":126.9844700507,"eventstartdate":"20221021","eventenddate":"20221030","firstimage":"http://tong.visitkorea.or.kr/cms/resource/84/2858884_image2_1.jpg","firstimage2":"http://tong.visitkorea.or.kr/cms/resource/84/2858884_image3_1.jpg","tel":"063-859-4977,4994","titleFull":"익산천만송이국화축제"},{"id":1806376,"title":"강동북페스티벌","addr1":"서울특별시 강동구 동남로 870 강동아트센터","latitude":37.5511370351,"longitude":127.1574079432,"eventstartdate":"20221015","eventenddate":"20221015","firstimage":"http://tong.visitkorea.or.kr/cms/resource/83/2858883_image2_1.jpg","firstimage2":"http://tong.visitkorea.or.kr/cms/resource/83/2858883_image3_1.jpg","tel":"강일 427-4004, 성내 471-0044, 해공 478-9656, 암사 429-0476, 천호 488-7223, 둔촌 489-6557","titleFull":"강동북페스티벌"},{"id":2615356,"title":"네이처파크 할로윈페스티벌","addr1":"대구광역시 달성군 가창면 가창로 891","latitude":35.7881605357,"longitude":128.6353392148,"eventstartdate":"20220924","eventenddate":"20221106","firstimage":"http://tong.visitkorea.or.kr/cms/resource/81/2858881_image2_1.jpg","firstimage2":"http://tong.visitkorea.or.kr/cms/resource/81/2858881_image3_1.jpg","tel":"1688-8511","titleFull":"네이처파크 할로윈페스티벌"},{"id":2764526,"title":"2022 인천 독서대전","addr1":"인천광역시 연수구 해돋이로 51","latitude":37.3884664061,"longitude":126.655222133,"eventstartdate":"20220924","eventenddate":"20221002","firstimage":"http://tong.visitkorea.or.kr/cms/resource/42/2850642_image2_1.jpeg","firstimage2":"http://tong.visitkorea.or.kr/cms/resource/42/2850642_image3_1.jpeg","tel":"032-440-7873","titleFull":"2022 인천 독서대전"},{"id":2553012,"title":"제7회 허왕후신행길축제","addr1":"경상남도 김해시 서상동","latitude":35.2354383726,"longitude":128.8784275779,"eventstartdate":"20221001","eventenddate":"20221002","firstimage":"http://tong.visitkorea.or.kr/cms/resource/67/2858867_image2_1.jpg","firstimage2":"http://tong.visitkorea.or.kr/cms/resource/67/2858867_image3_1.jpg","tel":"055-320-1220","titleFull":"제7회 허왕후신행길축제"},{"id":2849159,"title":"2022  제10회 연수능허대문화축제","addr1":"인천광역시 연수구 송도동","latitude":37.3954517696,"longitude":126.6588132791,"eventstartdate":"20220930","eventenddate":"20221001","firstimage":"http://tong.visitkorea.or.kr/cms/resource/70/2858870_image2_1.jpg","firstimage2":"http://tong.visitkorea.or.kr/cms/resource/70/2858870_image3_1.jpg","tel":"032-749-8932~8934","titleFull":"2022  제10회 연수능허대문화축제"},{"id":2487791,"title":"2022 서울 아프리카 페스티벌","addr1":"서울특별시 성동구 성수동1가","latitude":37.5451522696,"longitude":127.0394160777,"eventstartdate":"20221001","eventenddate":"20221001","firstimage":"http://tong.visitkorea.or.kr/cms/resource/88/2852888_image2_1.jpg","firstimage2":"http://tong.visitkorea.or.kr/cms/resource/88/2852888_image3_1.jpg","tel":"02-6082-0801","titleFull":"2022 서울 아프리카 페스티벌"},{"id":2845975,"title":"용인패밀리페스티벌","addr1":"경기도 용인시 처인구 중부대로 1199 용인시청","latitude":37.2402956597,"longitude":127.178037091,"eventstartdate":"20221022","eventenddate":"20221023","firstimage":"http://tong.visitkorea.or.kr/cms/resource/59/2853659_image2_1.jpg","firstimage2":"http://tong.visitkorea.or.kr/cms/resource/59/2853659_image3_1.jpg","tel":"031-324-3044","titleFull":"용인패밀리페스티벌"},{"id":2856675,"title":"안아드림 페스티벌","addr1":"경상북도 안동시 도청대로 455 경상북도청","latitude":36.5751409667,"longitude":128.5088226249,"eventstartdate":"20221021","eventenddate":"20221022","firstimage":"http://tong.visitkorea.or.kr/cms/resource/74/2856674_image2_1.jpg","firstimage2":"http://tong.visitkorea.or.kr/cms/resource/74/2856674_image3_1.jpg","tel":"010-4473-5190","titleFull":"안아드림 페스티벌"},{"id":631268,"title":"한화와 함께하는 서울세계불꽃축제 2022","addr1":"서울특별시 영등포구 여의동로 330","latitude":37.5263247807,"longitude":126.933576251,"eventstartdate":"20221008","eventenddate":"20221008","firstimage":"http://tong.visitkorea.or.kr/cms/resource/31/2858831_image2_1.jpg","firstimage2":"http://tong.visitkorea.or.kr/cms/resource/31/2858831_image3_1.jpg","tel":"02-519-9778","titleFull":"한화와 함께하는 서울세계불꽃축제 2022"},{"id":603884,"title":"제 28회 남도음식문화큰잔치","addr1":"전라남도 여수시 박람회길 1","latitude":34.7522251119,"longitude":127.7465197232,"eventstartdate":"20221007","eventenddate":"20221009","firstimage":"http://tong.visitkorea.or.kr/cms/resource/00/2857200_image2_1.jpg","firstimage2":"http://tong.visitkorea.or.kr/cms/resource/00/2857200_image3_1.jpg","tel":"061-286-5771","titleFull":"제 28회 남도음식문화큰잔치"},{"id":2856684,"title":"2022년 제 2회 승가원 온&오프라인 기부하이킹","addr1":"서울특별시 서대문구 봉원동","latitude":37.5796520626,"longitude":126.9417156699,"eventstartdate":"20221015","eventenddate":"20221015","firstimage":"http://tong.visitkorea.or.kr/cms/resource/83/2856683_image2_1.jpg","firstimage2":"http://tong.visitkorea.or.kr/cms/resource/83/2856683_image3_1.jpg","tel":"1688-0750","titleFull":"2022년 제 2회 승가원 온&오프라인 기부하이킹"},{"id":2848979,"title":"2022 기형도문학관 창작시 공모전 ‘어느 푸른 저녁’","addr1":"경기도 광명시 오리로 268","latitude":37.42646045,"longitude":126.8815921252,"eventstartdate":"20220919","eventenddate":"20221112","firstimage":"http://tong.visitkorea.or.kr/cms/resource/75/2848575_image2_1.jpg","firstimage2":"http://tong.visitkorea.or.kr/cms/resource/75/2848575_image3_1.jpg","tel":"02-2621-8860","titleFull":"2022 기형도문학관 창작시 공모전 ‘어느 푸른 저녁’"},{"id":2858305,"title":"2022 영산강 환경문화뎐","addr1":"광주광역시 남구 승촌보길 90","latitude":35.0658591631,"longitude":126.7610846037,"eventstartdate":"20220924","eventenddate":"20221003","firstimage":"http://tong.visitkorea.or.kr/cms/resource/98/2858298_image2_1.jpg","firstimage2":"http://tong.visitkorea.or.kr/cms/resource/98/2858298_image3_1.jpg","tel":"061-335-0866","titleFull":"2022 영산강 환경문화뎐"},{"id":2757229,"title":"2022 대구 정신건강축제","addr1":"대구광역시 북구 엑스코로 10 대구전시컨벤션센터","latitude":35.9071133308,"longitude":128.613098973,"eventstartdate":"20221014","eventenddate":"20221015","firstimage":"http://tong.visitkorea.or.kr/cms/resource/63/2858163_image2_1.jpg","firstimage2":"http://tong.visitkorea.or.kr/cms/resource/63/2858163_image3_1.jpg","tel":"053-256-0199","titleFull":"2022 대구 정신건강축제"},{"id":2416752,"title":"2022년 제13회 오산독산성문화제","addr1":"경기도 오산시 현충로 100","latitude":37.1602725527,"longitude":127.0770956975,"eventstartdate":"20221001","eventenddate":"20221002","firstimage":"http://tong.visitkorea.or.kr/cms/resource/56/2857956_image2_1.jpg","firstimage2":"http://tong.visitkorea.or.kr/cms/resource/56/2857956_image3_1.jpg","tel":"031-379-9924","titleFull":"2022년 제13회 오산독산성문화제"},{"id":2846192,"title":"동아시아문화도시 2022 경주 - 난장! 동아시아를 즐겨라!","addr1":"경상북도 경주시 중앙로 18","latitude":35.8414847113,"longitude":129.2118426468,"eventstartdate":"20221007","eventenddate":"20221009","firstimage":"http://tong.visitkorea.or.kr/cms/resource/15/2857815_image2_1.jpg","firstimage2":"http://tong.visitkorea.or.kr/cms/resource/15/2857815_image3_1.jpg","tel":"054-777-5952~4","titleFull":"동아시아문화도시 2022 경주 - 난장! 동아시아를 즐겨라!"},{"id":2857763,"title":"2022 서울뮤직페스티벌","addr1":"서울특별시 용산구 양녕로 445","latitude":37.5177178854,"longitude":126.9580520415,"eventstartdate":"20221013","eventenddate":"20221016","firstimage":"http://tong.visitkorea.or.kr/cms/resource/21/2857721_image2_1.jpg","firstimage2":"http://tong.visitkorea.or.kr/cms/resource/21/2857721_image3_1.jpg","tel":"070-4170-0944","titleFull":"2022 서울뮤직페스티벌"},{"id":2753100,"title":"환상마켓 시즌 3","addr1":"경기도 광명시 철산로 13 철산역","latitude":37.4761516608,"longitude":126.8680169685,"eventstartdate":"20221008","eventenddate":"20221009","firstimage":"http://tong.visitkorea.or.kr/cms/resource/76/2857576_image2_1.jpg","firstimage2":"http://tong.visitkorea.or.kr/cms/resource/76/2857576_image3_1.jpg","tel":"02)2680-6951","titleFull":"환상마켓 시즌 3"},{"id":604097,"title":"제29회 광주세계김치축제","addr1":"광주광역시 남구 김치로 60","latitude":35.1086394471,"longitude":126.8669908447,"eventstartdate":"20221020","eventenddate":"20221023","firstimage":"http://tong.visitkorea.or.kr/cms/resource/60/2857360_image2_1.jpg","firstimage2":"http://tong.visitkorea.or.kr/cms/resource/60/2857360_image3_1.jpg","tel":"062-613-3955","titleFull":"제29회 광주세계김치축제"},{"id":2666412,"title":"2022 문화가 있는 날 [농(農) 리브 디 아트] - 허수아비아트축제","addr1":"충청북도 청주시 청원구 내수읍 비중리","latitude":36.7121471081,"longitude":127.5802183782,"eventstartdate":"20221001","eventenddate":"20221001","firstimage":"http://tong.visitkorea.or.kr/cms/resource/97/2857297_image2_1.jpg","firstimage2":"http://tong.visitkorea.or.kr/cms/resource/97/2857297_image3_1.jpg","tel":"0507-1341-1731","titleFull":"2022 문화가 있는 날 [농(農) 리브 디 아트] - 허수아비아트축제"},{"id":1398149,"title":"제 22회 삼랑성역사문화축제","addr1":"인천광역시 강화군 길상면 전등사로 37-41","latitude":37.6321461675,"longitude":126.4843809763,"eventstartdate":"20221001","eventenddate":"20221009","firstimage":"http://tong.visitkorea.or.kr/cms/resource/40/2857140_image2_1.jpg","firstimage2":"http://tong.visitkorea.or.kr/cms/resource/40/2857140_image3_1.jpg","tel":"032-937-0125","titleFull":"제 22회 삼랑성역사문화축제"},{"id":141918,"title":"대전사이언스페스티벌","addr1":"대전광역시 유성구 엑스포로 87","latitude":36.3751823135,"longitude":127.3893058608,"eventstartdate":"20221020","eventenddate":"20221023","firstimage":"http://tong.visitkorea.or.kr/cms/resource/72/2857072_image2_1.jpg","firstimage2":"http://tong.visitkorea.or.kr/cms/resource/72/2857072_image3_1.jpg","tel":"042-250-1452","titleFull":"대전사이언스페스티벌"},{"id":2857052,"title":"낙동강문화관 수변환경문화제","addr1":"부산광역시 사하구 낙동남로1233번길 1 낙동강문화관","latitude":35.1082900017,"longitude":128.947444472,"eventstartdate":"20220924","eventenddate":"20221023","firstimage":"http://tong.visitkorea.or.kr/cms/resource/25/2857025_image2_1.jpg","firstimage2":"http://tong.visitkorea.or.kr/cms/resource/25/2857025_image3_1.jpg","tel":"051-292-1042","titleFull":"낙동강문화관 수변환경문화제"},{"id":2857018,"title":"2022 부산영어방송 핼러윈 퍼레이드 페스티벌","addr1":"부산광역시 수영구 광안해변로 219 수영구문화센터","latitude":35.1538130576,"longitude":129.1185477876,"eventstartdate":"20221029","eventenddate":"20221029","firstimage":"http://tong.visitkorea.or.kr/cms/resource/00/2857000_image2_1.jpg","firstimage2":"http://tong.visitkorea.or.kr/cms/resource/00/2857000_image3_1.jpg","tel":"070-4365-8385","titleFull":"2022 부산영어방송 핼러윈 퍼레이드 페스티벌"},{"id":790124,"title":"2022 강원홍천 인삼∙한우 명품축제","addr1":"강원도 홍천군 홍천읍 갈마곡리","latitude":37.6892539747,"longitude":127.8931204292,"eventstartdate":"20220930","eventenddate":"20221003","firstimage":"http://tong.visitkorea.or.kr/cms/resource/95/2853995_image2_1.jpg","firstimage2":"http://tong.visitkorea.or.kr/cms/resource/95/2853995_image3_1.jpg","tel":"033-439-5854","titleFull":"2022 강원홍천 인삼∙한우 명품축제"},{"id":2390168,"title":"2022 부산원아시아페스티벌 (BOF 2022)","addr1":"부산광역시 연제구 월드컵대로 344 부산아시아드주경기장","latitude":35.188996932,"longitude":129.0604518774,"eventstartdate":"20221027","eventenddate":"20221030","firstimage":"http://tong.visitkorea.or.kr/cms/resource/74/2854774_image2_1.jpg","firstimage2":"http://tong.visitkorea.or.kr/cms/resource/74/2854774_image3_1.jpg","tel":"051-780-4144","titleFull":"2022 부산원아시아페스티벌 (BOF 2022)"},{"id":2754421,"title":"괴산김장축제","addr1":"충청북도 괴산군 임꺽정로 90 괴산군청","latitude":36.8150334848,"longitude":127.7866914135,"eventstartdate":"20221104","eventenddate":"20221106","firstimage":"http://tong.visitkorea.or.kr/cms/resource/51/2856751_image2_1.jpg","firstimage2":"http://tong.visitkorea.or.kr/cms/resource/51/2856751_image3_1.jpg","tel":"043-830-3463","titleFull":"괴산김장축제"},{"id":2551117,"title":"김해문화재야행","addr1":"경상남도 김해시 가락로93번길 26","latitude":35.2349050783,"longitude":128.8772665825,"eventstartdate":"20221013","eventenddate":"20221015","firstimage":"http://tong.visitkorea.or.kr/cms/resource/29/2856729_image2_1.jpg","firstimage2":"http://tong.visitkorea.or.kr/cms/resource/29/2856729_image3_1.jpg","tel":"055-320-1213","titleFull":"김해문화재야행"},{"id":737479,"title":"2022 강남페스티벌","addr1":"서울특별시 강남구 영동대로 513 코엑스","latitude":37.5119175967,"longitude":127.059217995,"eventstartdate":"20220930","eventenddate":"20221008","firstimage":"http://tong.visitkorea.or.kr/cms/resource/24/2853024_image2_1.jpg","firstimage2":"http://tong.visitkorea.or.kr/cms/resource/24/2853024_image3_1.jpg","tel":"02-3423-5534","titleFull":"2022 강남페스티벌"},{"id":2856672,"title":"SSK 2022(슈퍼사운드코리아 2022)","addr1":"경기도 고양시 일산서구 킨텍스로 217-60 킨텍스","latitude":37.6689881691,"longitude":126.7458171427,"eventstartdate":"20221111","eventenddate":"20221111","firstimage":"http://tong.visitkorea.or.kr/cms/resource/71/2856671_image2_1.jpg","firstimage2":"http://tong.visitkorea.or.kr/cms/resource/71/2856671_image3_1.jpg","tel":"02-475-8820","titleFull":"SSK 2022(슈퍼사운드코리아 2022)"},{"id":2856663,"title":"제7회 허브나라 가을축제","addr1":"강원도 평창군 흥정계곡길 225","latitude":37.6358630832,"longitude":128.342670228,"eventstartdate":"20221001","eventenddate":"20221010","firstimage":"http://tong.visitkorea.or.kr/cms/resource/57/2856657_image2_1.jpg","firstimage2":"http://tong.visitkorea.or.kr/cms/resource/57/2856657_image3_1.jpg","tel":"033-335-2902","titleFull":"제7회 허브나라 가을축제"},{"id":2856656,"title":"무형유산이음축제-가을의 예","addr1":"전라북도 전주시 덕진구 권삼득로 390-1 연화정","latitude":35.8491321219,"longitude":127.1233519567,"eventstartdate":"20221008","eventenddate":"20221009","firstimage":"http://tong.visitkorea.or.kr/cms/resource/55/2856655_image2_1.jpg","firstimage2":"http://tong.visitkorea.or.kr/cms/resource/55/2856655_image3_1.jpg","tel":"070-4750-5076","titleFull":"무형유산이음축제-가을의 예"},{"id":2505657,"title":"2022서울무형문화축제","addr1":"서울특별시 종로구 창덕궁길 94 원서노인정","latitude":37.581733232,"longitude":126.9894557031,"eventstartdate":"20221014","eventenddate":"20221015","firstimage":"http://tong.visitkorea.or.kr/cms/resource/46/2856646_image2_1.jpg","firstimage2":"http://tong.visitkorea.or.kr/cms/resource/46/2856646_image3_1.jpg","tel":"02-6401-9717","titleFull":"2022서울무형문화축제"},{"id":2856569,"title":"매향리아트런","addr1":"경기도 화성시 매향선창길 71 해양오염 방제장비 비축기지","latitude":37.0355061658,"longitude":126.7487566688,"eventstartdate":"20221029","eventenddate":"20221029","firstimage":"http://tong.visitkorea.or.kr/cms/resource/65/2856565_image2_1.jpg","firstimage2":"http://tong.visitkorea.or.kr/cms/resource/65/2856565_image3_1.jpg","tel":"010-4102-6757","titleFull":"매향리아트런"},{"id":2856526,"title":"제 3회 황금삽 셰프 어워즈","addr1":"인천광역시 연수구 센트럴로 123","latitude":37.3900244069,"longitude":126.6466173186,"eventstartdate":"20221102","eventenddate":"20221102","firstimage":"http://tong.visitkorea.or.kr/cms/resource/05/2856505_image2_1.jpg","firstimage2":"http://tong.visitkorea.or.kr/cms/resource/05/2856505_image3_1.jpg","tel":"02-6953-9010","titleFull":"제 3회 황금삽 셰프 어워즈"},{"id":2856491,"title":"HAPPINESS IS THE GREAT PUMKIN IN SNOPPY GARDEN","addr1":"제주특별자치도 제주시 금백조로 930","latitude":33.443401779,"longitude":126.7786189466,"eventstartdate":"20220901","eventenddate":"20221031","firstimage":"http://tong.visitkorea.or.kr/cms/resource/52/2856452_image2_1.jpg","firstimage2":"http://tong.visitkorea.or.kr/cms/resource/52/2856452_image3_1.jpg","tel":"064-903-1111","titleFull":"HAPPINESS IS THE GREAT PUMKIN IN SNOPPY GARDEN"},{"id":2856172,"title":"The New WAVE 展","addr1":"서울특별시 종로구 평창11길 29","latitude":37.6081464015,"longitude":126.9656987868,"eventstartdate":"20220817","eventenddate":"20221030","firstimage":"http://tong.visitkorea.or.kr/cms/resource/32/2856132_image2_1.jpg","firstimage2":"http://tong.visitkorea.or.kr/cms/resource/32/2856132_image3_1.jpg","tel":"02-6930-5722","titleFull":"The New WAVE 展"},{"id":1726052,"title":"남해 독일마을 맥주축제","addr1":"경상남도 남해군 독일로 89-7","latitude":34.8000859569,"longitude":128.0383624398,"eventstartdate":"20220930","eventenddate":"20221002","firstimage":"http://tong.visitkorea.or.kr/cms/resource/37/2841137_image2_1.jpg","firstimage2":"http://tong.visitkorea.or.kr/cms/resource/37/2841137_image3_1.jpg","tel":"055-864-4515","titleFull":"남해 독일마을 맥주축제"},{"id":1718491,"title":"제57회 설악문화제","addr1":"강원도 속초시 중앙동","latitude":38.2031575625,"longitude":128.5907248171,"eventstartdate":"20221007","eventenddate":"20221009","firstimage":"http://tong.visitkorea.or.kr/cms/resource/75/2855875_image2_1.jpg","firstimage2":"http://tong.visitkorea.or.kr/cms/resource/75/2855875_image3_1.jpg","tel":"033-636-0670","titleFull":"제57회 설악문화제"},{"id":774068,"title":"제19회 호러와함께, 2022 대구국제힐링공연예술제","addr1":"대구광역시 남구 명덕로 58-2 구두수선대","latitude":35.8588709045,"longitude":128.576964612,"eventstartdate":"20220805","eventenddate":"20221030","firstimage":"http://tong.visitkorea.or.kr/cms/resource/41/2855641_image2_1.jpg","firstimage2":"http://tong.visitkorea.or.kr/cms/resource/41/2855641_image3_1.jpg","tel":"053-255-2555","titleFull":"제19회 호러와함께, 2022 대구국제힐링공연예술제"},{"id":2855626,"title":"2022 허심청브로이 옥토버페스트","addr1":"부산광역시 동래구 금강공원로20번길 23 호텔농심","latitude":35.2199410969,"longitude":129.0826296532,"eventstartdate":"20221013","eventenddate":"20221015","firstimage":"http://tong.visitkorea.or.kr/cms/resource/20/2855620_image2_1.jpg","firstimage2":"http://tong.visitkorea.or.kr/cms/resource/20/2855620_image3_1.jpg","tel":"051-550-2509","titleFull":"2022 허심청브로이 옥토버페스트"},{"id":2558866,"title":"제6회 예산장터 삼국축제","addr1":"충청남도 예산군 천변로 160 예산시네마","latitude":36.6761660126,"longitude":126.8479407825,"eventstartdate":"20221014","eventenddate":"20221020","firstimage":"http://tong.visitkorea.or.kr/cms/resource/39/2855539_image2_1.jpg","firstimage2":"http://tong.visitkorea.or.kr/cms/resource/39/2855539_image3_1.jpg","tel":"070-4227-5417","titleFull":"제6회 예산장터 삼국축제"},{"id":2550194,"title":"대한민국 독서대전","addr1":"강원도 원주시  시청로 (1, 원주시청)","latitude":37.342369634,"longitude":127.9199892978,"eventstartdate":"20220923","eventenddate":"20230925","firstimage":"http://tong.visitkorea.or.kr/cms/resource/60/2855560_image2_1.jpg","firstimage2":"http://tong.visitkorea.or.kr/cms/resource/60/2855560_image3_1.jpg","tel":"033-737-3814~3817","titleFull":"대한민국 독서대전"},{"id":507531,"title":"제 22회 한성백제문화제","addr1":"서울특별시 송파구 올림픽로 326 송파구청","latitude":37.5148625533,"longitude":127.1066830358,"eventstartdate":"20220930","eventenddate":"20221002","firstimage":"http://tong.visitkorea.or.kr/cms/resource/72/2819172_image2_1.JPG","firstimage2":"http://tong.visitkorea.or.kr/cms/resource/72/2819172_image2_1.JPG","tel":"02-2147-2800","titleFull":"제 22회 한성백제문화제"},{"id":2855326,"title":"2022 제50회 우륵문화제","addr1":"충청북도 충주시 중앙로 128 충주문화회관","latitude":36.9706683561,"longitude":127.9372429224,"eventstartdate":"20220930","eventenddate":"20221009","firstimage":"http://tong.visitkorea.or.kr/cms/resource/09/2855309_image2_1.jpg","firstimage2":"http://tong.visitkorea.or.kr/cms/resource/09/2855309_image3_1.jpg","tel":"043-847-1565","titleFull":"2022 제50회 우륵문화제"},{"id":1336591,"title":"완주 와일드&로컬푸드축제","addr1":"전라북도 완주군 고산휴양림로 246 고산휴양림","latitude":35.9615878959,"longitude":127.2331642183,"eventstartdate":"20220930","eventenddate":"20221002","firstimage":"http://tong.visitkorea.or.kr/cms/resource/33/2827633_image2_1.jpg","firstimage2":"http://tong.visitkorea.or.kr/cms/resource/33/2827633_image3_1.jpg","tel":"063-290-2623, 2622","titleFull":"완주 와일드&로컬푸드축제"},{"id":506670,"title":"안동국제탈춤페스티벌","addr1":"경상북도 안동시 축제장길 200 탈춤공연장","latitude":36.5605523512,"longitude":128.7306588876,"eventstartdate":"20220929","eventenddate":"20221003","firstimage":"http://tong.visitkorea.or.kr/cms/resource/49/2855249_image2_1.jpg","firstimage2":"http://tong.visitkorea.or.kr/cms/resource/49/2855249_image3_1.jpg","tel":"054-841-6379~8","titleFull":"안동국제탈춤페스티벌"},{"id":2855225,"title":"평택 한가락 페스타","addr1":"경기도 평택시 평남로 616 소사벌레포츠타운","latitude":36.9889928586,"longitude":127.106336697,"eventstartdate":"20221007","eventenddate":"20221008","firstimage":"http://tong.visitkorea.or.kr/cms/resource/13/2855213_image2_1.jpg","firstimage2":"http://tong.visitkorea.or.kr/cms/resource/13/2855213_image3_1.jpg","tel":"010-8915-8053","titleFull":"평택 한가락 페스타"},{"id":2485123,"title":"순천 푸드앤아트 페스티벌","addr1":"전라남도 순천시 중앙로 125-1 종합문구사","latitude":34.9569309401,"longitude":127.4840014124,"eventstartdate":"20221007","eventenddate":"20221009","firstimage":"http://tong.visitkorea.or.kr/cms/resource/04/2855204_image2_1.jpg","firstimage2":"http://tong.visitkorea.or.kr/cms/resource/04/2855204_image3_1.jpg","tel":"061-749-5796","titleFull":"순천 푸드앤아트 페스티벌"},{"id":2854507,"title":"2022 청정완도 가을섬 여행","addr1":"전라남도 완도군 해변공원로 52","latitude":34.318737351,"longitude":126.7502759522,"eventstartdate":"20220930","eventenddate":"20221009","firstimage":"http://tong.visitkorea.or.kr/cms/resource/06/2854506_image2_1.jpg","firstimage2":"http://tong.visitkorea.or.kr/cms/resource/06/2854506_image3_1.jpg","tel":"02-576-2417","titleFull":"2022 청정완도 가을섬 여행"},{"id":2414941,"title":"2022 사랑-나미나라 인도문화축제","addr1":"강원도 춘천시 남산면 남이섬길 1","latitude":37.7901326639,"longitude":127.5262424616,"eventstartdate":"20221008","eventenddate":"20221009","firstimage":"http://tong.visitkorea.or.kr/cms/resource/72/2855072_image2_1.jpg","firstimage2":"http://tong.visitkorea.or.kr/cms/resource/72/2855072_image3_1.jpg","tel":"031-580-8015","titleFull":"2022 사랑-나미나라 인도문화축제"},{"id":2854855,"title":"2022 대한민국 관광기념품 박람회","addr1":"서울특별시 중구 을지로 281","latitude":37.566107632,"longitude":127.0095709797,"eventstartdate":"20221202","eventenddate":"20221203","firstimage":"http://tong.visitkorea.or.kr/cms/resource/53/2854853_image2_1.jpg","firstimage2":"http://tong.visitkorea.or.kr/cms/resource/53/2854853_image3_1.jpg","tel":"02-6918-2592","titleFull":"2022 대한민국 관광기념품 박람회"},{"id":1327896,"title":"2022 대한민국 우표전시회","addr1":"서울특별시 중구 소공로 70 서울중앙우체국청사","latitude":37.5616521023,"longitude":126.9821847125,"eventstartdate":"20220922","eventenddate":"20221020","firstimage":"http://tong.visitkorea.or.kr/cms/resource/50/2854850_image2_1.jpg","firstimage2":"http://tong.visitkorea.or.kr/cms/resource/50/2854850_image3_1.jpg","tel":"02-2036-0846","titleFull":"2022 대한민국 우표전시회"},{"id":1093672,"title":"2022 무창포 가을 대하 전어 축제","addr1":"충청남도 보령시 웅천읍 관당리 804-1","latitude":36.2432492183,"longitude":126.5355553599,"eventstartdate":"20220917","eventenddate":"20221003","firstimage":"http://tong.visitkorea.or.kr/cms/resource/54/221554_image2_1.jpg","firstimage2":"http://tong.visitkorea.or.kr/cms/resource/54/221554_image3_1.jpg","tel":"010-7936-3510","titleFull":"2022 무창포 가을 대하 전어 축제"},{"id":1307813,"title":"제27회 강동선사문화축제","addr1":"서울특별시 강동구 올림픽로 875 서울 암사동 유적","latitude":37.5591134023,"longitude":127.1306157102,"eventstartdate":"20221007","eventenddate":"20221009","firstimage":"http://tong.visitkorea.or.kr/cms/resource/81/2853681_image2_1.jpg","firstimage2":"http://tong.visitkorea.or.kr/cms/resource/81/2853681_image3_1.jpg","tel":"02-3425-8530","titleFull":"제27회 강동선사문화축제"},{"id":2728601,"title":"부산국제광고제","addr1":"부산광역시 해운대구 APEC로 55 벡스코","latitude":35.1687450332,"longitude":129.1355209016,"eventstartdate":"20220101","eventenddate":"20221231","firstimage":"http://tong.visitkorea.or.kr/cms/resource/84/2830684_image2_1.jpg","firstimage2":"http://tong.visitkorea.or.kr/cms/resource/84/2830684_image3_1.jpg","tel":"051-623-5539","titleFull":"부산국제광고제"},{"id":2824857,"title":"2022 괴산세계유기농산업엑스포","addr1":"충청북도 괴산군 임꺽정로 113","latitude":36.8147417924,"longitude":127.7834944865,"eventstartdate":"20220930","eventenddate":"20221016","firstimage":"http://tong.visitkorea.or.kr/cms/resource/56/2824856_image2_1.jpg","firstimage2":"http://tong.visitkorea.or.kr/cms/resource/56/2824856_image3_1.jpg","tel":"043-219-6622","titleFull":"2022 괴산세계유기농산업엑스포"},{"id":2828336,"title":"시흥월곶포구축제","addr1":"경기도 시흥시 월곶중앙로 37-1","latitude":37.3876152382,"longitude":126.7408199144,"eventstartdate":"20221021","eventenddate":"20221023","firstimage":"http://tong.visitkorea.or.kr/cms/resource/88/2852388_image2_1.jpg","firstimage2":"http://tong.visitkorea.or.kr/cms/resource/88/2852388_image3_1.jpg","tel":"031)318-4061","titleFull":"시흥월곶포구축제"},{"id":2751126,"title":"2022 김천포도축제 with 팜&컬쳐 페스타","addr1":"경상북도 김천시 운동장길 1 김천종합스포츠타운","latitude":36.1376303126,"longitude":128.0878890158,"eventstartdate":"20221007","eventenddate":"20221009","firstimage":"http://tong.visitkorea.or.kr/cms/resource/00/2854500_image2_1.jpg","firstimage2":"http://tong.visitkorea.or.kr/cms/resource/00/2854500_image3_1.jpg","tel":"053-381-8071","titleFull":"2022 김천포도축제 with 팜&컬쳐 페스타"},{"id":2673150,"title":"Let's DMZ","addr1":"경기도 파주시 임진각로 148-40 평화누리","latitude":37.8920676942,"longitude":126.7447609198,"eventstartdate":"20220916","eventenddate":"20221002","firstimage":"http://tong.visitkorea.or.kr/cms/resource/09/2852409_image2_1.jpg","firstimage2":"http://tong.visitkorea.or.kr/cms/resource/09/2852409_image3_1.jpg","tel":"031-853-6496","titleFull":"Let's DMZ"},{"id":1399407,"title":"2022청도반시축제","addr1":"경상북도 청도군 청려로 1846","latitude":35.6512053494,"longitude":128.7202383285,"eventstartdate":"20221014","eventenddate":"20221016","firstimage":"http://tong.visitkorea.or.kr/cms/resource/43/2852343_image2_1.jpg","firstimage2":"http://tong.visitkorea.or.kr/cms/resource/43/2852343_image3_1.jpg","tel":"054-370-6376","titleFull":"2022청도반시축제"},{"id":2488793,"title":"2022서울도시농업박람회","addr1":"서울특별시 중구 을지로 12 시청광장지하쇼핑센터","latitude":37.5655015943,"longitude":126.9787960237,"eventstartdate":"20221007","eventenddate":"20221008","firstimage":"http://tong.visitkorea.or.kr/cms/resource/02/2854502_image2_1.jpg","firstimage2":"http://tong.visitkorea.or.kr/cms/resource/02/2854502_image3_1.jpg","tel":"02-6358-7774","titleFull":"2022서울도시농업박람회"},{"id":2841087,"title":"부안문화재야행","addr1":"전라북도 부안군 동문안1길 20","latitude":35.7360049751,"longitude":126.733986798,"eventstartdate":"20220930","eventenddate":"20221001","firstimage":"http://tong.visitkorea.or.kr/cms/resource/01/2854501_image2_1.jpg","firstimage2":"http://tong.visitkorea.or.kr/cms/resource/01/2854501_image3_1.jpg","tel":"063-244-3177","titleFull":"부안문화재야행"},{"id":2392159,"title":"제7회 부천세계비보이대회(BBIC)","addr1":"경기도 부천시 부천로 3-1","latitude":37.4847380201,"longitude":126.7818856883,"eventstartdate":"20220930","eventenddate":"20221002","firstimage":"http://tong.visitkorea.or.kr/cms/resource/93/2854493_image2_1.jpg","firstimage2":"http://tong.visitkorea.or.kr/cms/resource/93/2854493_image3_1.jpg","tel":"032-625-3111","titleFull":"제7회 부천세계비보이대회(BBIC)"},{"id":2562417,"title":"마노르블랑 핑크뮬리축제 2022","addr1":"제주특별자치도 서귀포시 안덕면 일주서로2100번길 46","latitude":0,"longitude":0,"eventstartdate":"20220913","eventenddate":"20221130","firstimage":"http://tong.visitkorea.or.kr/cms/resource/67/2854467_image2_1.jpg","firstimage2":"http://tong.visitkorea.or.kr/cms/resource/67/2854467_image3_1.jpg","tel":"064-794-0999","titleFull":"마노르블랑 핑크뮬리축제 2022"},{"id":604454,"title":"제49회고창모양성제","addr1":"전라북도 고창군 고창읍 모양성로 1","latitude":35.4315946094,"longitude":126.7042193959,"eventstartdate":"20220930","eventenddate":"20221004","firstimage":"http://tong.visitkorea.or.kr/cms/resource/44/2854444_image2_1.jpg","firstimage2":"http://tong.visitkorea.or.kr/cms/resource/44/2854444_image3_1.jpg","tel":"063-562-2999","titleFull":"제49회고창모양성제"},{"id":506708,"title":"양양송이축제","addr1":"강원도 양양군 양양읍 남문리","latitude":38.0733566436,"longitude":128.6242258213,"eventstartdate":"20220930","eventenddate":"20221002","firstimage":"http://tong.visitkorea.or.kr/cms/resource/04/2854404_image2_1.jpg","firstimage2":"http://tong.visitkorea.or.kr/cms/resource/04/2854404_image3_1.jpg","tel":"033-671-3803","titleFull":"양양송이축제"},{"id":506470,"title":"김해분청도자기축제","addr1":"경상남도 김해시 진례면 진례로 275-35","latitude":35.2515063634,"longitude":128.7458664871,"eventstartdate":"20221021","eventenddate":"20221030","firstimage":"","firstimage2":"","tel":"055-330-3244","titleFull":"김해분청도자기축제"},{"id":229057,"title":"제18회 서울와우북페스티벌","addr1":"서울특별시 마포구 양화로 72 서교동 효성 해링턴 타워","latitude":37.5508549625,"longitude":126.9167298722,"eventstartdate":"20221001","eventenddate":"20221009","firstimage":"http://tong.visitkorea.or.kr/cms/resource/94/2847494_image2_1.jpg","firstimage2":"http://tong.visitkorea.or.kr/cms/resource/94/2847494_image3_1.jpg","tel":"02-313-1587","titleFull":"제18회 서울와우북페스티벌"},{"id":2854144,"title":"제13회 INK(Incheon K-POP) 콘서트","addr1":"인천광역시 미추홀구 매소홀로 618 문학경기장","latitude":37.437336357,"longitude":126.6907314309,"eventstartdate":"20221001","eventenddate":"20221001","firstimage":"http://tong.visitkorea.or.kr/cms/resource/22/2854122_image2_1.jpg","firstimage2":"http://tong.visitkorea.or.kr/cms/resource/22/2854122_image3_1.jpg","tel":"1660-2022","titleFull":"제13회 INK(Incheon K-POP) 콘서트"},{"id":637693,"title":"마산국화축제","addr1":"경상남도 창원시 마산합포구 해안대로 180","latitude":35.1916820603,"longitude":128.5677281079,"eventstartdate":"20221029","eventenddate":"20221109","firstimage":"http://tong.visitkorea.or.kr/cms/resource/27/2757927_image2_1.jpg","firstimage2":"http://tong.visitkorea.or.kr/cms/resource/27/2757927_image2_1.jpg","tel":"055-225-2341","titleFull":"마산국화축제"},{"id":2832761,"title":"2022 서울뷰티위크","addr1":"서울특별시 중구 을지로 281","latitude":37.566107632,"longitude":127.0095709797,"eventstartdate":"20220930","eventenddate":"20221002","firstimage":"http://tong.visitkorea.or.kr/cms/resource/60/2832760_image2_1.jpg","firstimage2":"http://tong.visitkorea.or.kr/cms/resource/60/2832760_image3_1.jpg","tel":"02-550-2547 서울뷰티위크 운영사무국","titleFull":"2022 서울뷰티위크"},{"id":2847562,"title":"풍요로움을 전하는 동아시아의 등불 - 빛의 화원","addr1":"경상북도 경주시 경감로 614","latitude":35.8340564631,"longitude":129.2895443842,"eventstartdate":"20220909","eventenddate":"20221016","firstimage":"http://tong.visitkorea.or.kr/cms/resource/79/2854079_image2_1.jpg","firstimage2":"http://tong.visitkorea.or.kr/cms/resource/79/2854079_image3_1.jpg","tel":"054-740-3031","titleFull":"풍요로움을 전하는 동아시아의 등불 - 빛의 화원"},{"id":2853756,"title":"생생우리음악축제","addr1":"경기도 화성시 샘마을1길 8-4 봉담도서관","latitude":37.2194689777,"longitude":126.9490389926,"eventstartdate":"20221104","eventenddate":"20221106","firstimage":"http://tong.visitkorea.or.kr/cms/resource/53/2853753_image2_1.jpg","firstimage2":"http://tong.visitkorea.or.kr/cms/resource/53/2853753_image3_1.jpg","tel":"070-4102-6757","titleFull":"생생우리음악축제"},{"id":2852354,"title":"2022청도세계코미디아트페스티벌","addr1":"경상북도 청도군 청려로 1846","latitude":35.6512053494,"longitude":128.7202383285,"eventstartdate":"20221014","eventenddate":"20221016","firstimage":"http://tong.visitkorea.or.kr/cms/resource/53/2852353_image2_1.jpg","firstimage2":"http://tong.visitkorea.or.kr/cms/resource/53/2852353_image3_1.jpg","tel":"054-370-6376","titleFull":"2022청도세계코미디아트페스티벌"},{"id":2728867,"title":"대한민국문화의달(밀양)","addr1":"경상남도 밀양시 중앙로 324 영남루","latitude":35.491746181,"longitude":128.754709149,"eventstartdate":"20221014","eventenddate":"20221016","firstimage":"http://tong.visitkorea.or.kr/cms/resource/28/2850628_image2_1.jpg","firstimage2":"http://tong.visitkorea.or.kr/cms/resource/28/2850628_image3_1.jpg","tel":"055-359-4597","titleFull":"대한민국문화의달(밀양)"},{"id":229892,"title":"영천보현산별빛축제","addr1":"경상북도 영천시 별빛로 681-32","latitude":36.1400301975,"longitude":128.996311393,"eventstartdate":"20221001","eventenddate":"20221003","firstimage":"http://tong.visitkorea.or.kr/cms/resource/21/2853721_image2_1.jpg","firstimage2":"http://tong.visitkorea.or.kr/cms/resource/21/2853721_image3_1.jpg","tel":"054-330-6702<br>053-767-0220","titleFull":"영천보현산별빛축제"},{"id":2563119,"title":"벽초지수목원 가을꽃 국화축제","addr1":"경기도 파주시 광탄면 부흥로 242","latitude":37.8004973858,"longitude":126.8754182294,"eventstartdate":"20220923","eventenddate":"20221120","firstimage":"http://tong.visitkorea.or.kr/cms/resource/81/2850581_image2_1.jpg","firstimage2":"http://tong.visitkorea.or.kr/cms/resource/81/2850581_image3_1.jpg","tel":"031-957-2004","titleFull":"벽초지수목원 가을꽃 국화축제"},{"id":2853364,"title":"인간의 법정","addr1":"서울특별시 종로구 대학로12길 83 대학로 아트원씨어터","latitude":37.580322547,"longitude":127.0040210825,"eventstartdate":"20220928","eventenddate":"20221204","firstimage":"http://tong.visitkorea.or.kr/cms/resource/57/2853357_image2_1.jpg","firstimage2":"http://tong.visitkorea.or.kr/cms/resource/57/2853357_image3_1.jpg","tel":"070-7724-1535","titleFull":"인간의 법정"},{"id":2640874,"title":"서울라이트 DDP","addr1":"서울특별시 중구 을지로 281","latitude":37.5675991318,"longitude":127.009948681,"eventstartdate":"20220930","eventenddate":"20221009","firstimage":"http://tong.visitkorea.or.kr/cms/resource/19/2852319_image2_1.jpg","firstimage2":"http://tong.visitkorea.or.kr/cms/resource/19/2852319_image3_1.jpg","tel":"02-6953-9010","titleFull":"서울라이트 DDP"},{"id":2818138,"title":"2022 창경궁 야연","addr1":"서울특별시 종로구 창경궁로 185 창경궁","latitude":37.5789336838,"longitude":126.9964634775,"eventstartdate":"20220922","eventenddate":"20221006","firstimage":"http://tong.visitkorea.or.kr/cms/resource/33/2852433_image2_1.jpg","firstimage2":"http://tong.visitkorea.or.kr/cms/resource/33/2852433_image3_1.jpg","tel":"02-3210-4802","titleFull":"2022 창경궁 야연"},{"id":2852424,"title":"DMZ RUN 평화 걷기","addr1":"경기도 파주시 임진각로 148-40 평화누리","latitude":37.8920676942,"longitude":126.7447609198,"eventstartdate":"20221029","eventenddate":"20221029","firstimage":"http://tong.visitkorea.or.kr/cms/resource/22/2852422_image2_1.jpg","firstimage2":"http://tong.visitkorea.or.kr/cms/resource/22/2852422_image3_1.jpg","tel":"02-540-3462","titleFull":"DMZ RUN 평화 걷기"},{"id":2852421,"title":"DMZ RUN 평화 자전거","addr1":"경기도 파주시 임진각로 148-40 평화누리","latitude":37.8920676942,"longitude":126.7447609198,"eventstartdate":"20221015","eventenddate":"20221015","firstimage":"http://tong.visitkorea.or.kr/cms/resource/20/2852420_image2_1.jpg","firstimage2":"http://tong.visitkorea.or.kr/cms/resource/20/2852420_image3_1.jpg","tel":"02-540-3462","titleFull":"DMZ RUN 평화 자전거"},{"id":1344850,"title":"세종대왕과 초정약수축제","addr1":"충청북도 청주시 청원구 초정약수로 851 초정행궁","latitude":36.7213297572,"longitude":127.6006940627,"eventstartdate":"20221007","eventenddate":"20221009","firstimage":"http://tong.visitkorea.or.kr/cms/resource/93/2852393_image2_1.jpg","firstimage2":"http://tong.visitkorea.or.kr/cms/resource/93/2852393_image3_1.jpg","tel":"043-223-4030","titleFull":"세종대왕과 초정약수축제"},{"id":2846009,"title":"10월은 정동의 달 ‘시월정동’","addr1":"서울특별시 중구 정동길 21-18 정동공원","latitude":19.69442748,"longitude":117.9925662504,"eventstartdate":"20221006","eventenddate":"20221008","firstimage":"http://tong.visitkorea.or.kr/cms/resource/84/2845984_image2_1.jpg","firstimage2":"http://tong.visitkorea.or.kr/cms/resource/84/2845984_image3_1.jpg","tel":"02-120","titleFull":"10월은 정동의 달 ‘시월정동’"},{"id":706180,"title":"서울거리예술축제 2022","addr1":"서울특별시 용산구 양녕로 445","latitude":37.5177234407,"longitude":126.9580659298,"eventstartdate":"20220930","eventenddate":"20221002","firstimage":"http://tong.visitkorea.or.kr/cms/resource/35/2850635_image2_1.jpg","firstimage2":"http://tong.visitkorea.or.kr/cms/resource/35/2850635_image3_1.jpg","tel":"02-3437-0082","titleFull":"서울거리예술축제 2022"},{"id":589386,"title":"부천국제만화축제","addr1":"경기도 부천시 길주로 1","latitude":37.50825125,"longitude":126.7422053159,"eventstartdate":"20220930","eventenddate":"20221003","firstimage":"http://tong.visitkorea.or.kr/cms/resource/89/2852389_image2_1.jpg","firstimage2":"http://tong.visitkorea.or.kr/cms/resource/89/2852389_image3_1.jpg","tel":"032-310-3073","titleFull":"부천국제만화축제"},{"id":2588321,"title":"오크밸리 3D 라이팅쇼 '소나타오브라이트'","addr1":"강원도 원주시 지정면 오크밸리1길 66","latitude":37.4346459591,"longitude":127.817798618,"eventstartdate":"20220101","eventenddate":"20231231","firstimage":"","firstimage2":"","tel":"033-730-3146","titleFull":"오크밸리 3D 라이팅쇼 '소나타오브라이트'"},{"id":2756476,"title":"2022 조선왕릉문화제","addr1":"서울특별시 노원구 화랑로 727 대한체육회선수촌","latitude":37.6328737518,"longitude":127.1015912499,"eventstartdate":"20220924","eventenddate":"20221023","firstimage":"http://tong.visitkorea.or.kr/cms/resource/68/2852368_image2_1.jpg","firstimage2":"http://tong.visitkorea.or.kr/cms/resource/68/2852368_image3_1.jpg","tel":"02-6354-7223","titleFull":"2022 조선왕릉문화제"},{"id":2852365,"title":"DMZ RUN 평화 마라톤","addr1":"경기도 파주시 임진각로 148-40 평화누리","latitude":37.8920676942,"longitude":126.7447609198,"eventstartdate":"20221002","eventenddate":"20221002","firstimage":"http://tong.visitkorea.or.kr/cms/resource/64/2852364_image2_1.jpg","firstimage2":"http://tong.visitkorea.or.kr/cms/resource/64/2852364_image3_1.jpg","tel":"02-540-3462","titleFull":"DMZ RUN 평화 마라톤"},{"id":2852362,"title":"반려동물라이프스타일페어 (반려동물건강박람회)","addr1":"서울특별시 강남구 영동대로 513 코엑스","latitude":37.5119175967,"longitude":127.059217995,"eventstartdate":"20221104","eventenddate":"20221106","firstimage":"http://tong.visitkorea.or.kr/cms/resource/61/2852361_image2_1.jpg","firstimage2":"http://tong.visitkorea.or.kr/cms/resource/61/2852361_image3_1.jpg","tel":"02-761-2864","titleFull":"반려동물라이프스타일페어 (반려동물건강박람회)"},{"id":2503125,"title":"2022 브릿지워크서울","addr1":"서울특별시 영등포구 노들로 113 양화개나리점","latitude":37.5445580545,"longitude":126.8933655127,"eventstartdate":"20221015","eventenddate":"20221015","firstimage":"http://tong.visitkorea.or.kr/cms/resource/58/2852358_image2_1.jpg","firstimage2":"http://tong.visitkorea.or.kr/cms/resource/58/2852358_image3_1.jpg","tel":"070-4705-2008","titleFull":"2022 브릿지워크서울"},{"id":2671149,"title":"제8회 고양국제무용제","addr1":"경기도 고양시 일산동구 중앙로 1286","latitude":37.6612006889,"longitude":126.7740064529,"eventstartdate":"20220928","eventenddate":"20221002","firstimage":"http://tong.visitkorea.or.kr/cms/resource/57/2852357_image2_1.jpg","firstimage2":"http://tong.visitkorea.or.kr/cms/resource/57/2852357_image3_1.jpg","tel":"010-7794-5101","titleFull":"제8회 고양국제무용제"},{"id":2849025,"title":"2022 남한산성 세계유산 활용 프로그램","addr1":"경기도 광주시 남한산성면 산성리","latitude":37.4801512546,"longitude":127.1809161601,"eventstartdate":"20220826","eventenddate":"20221127","firstimage":"http://tong.visitkorea.or.kr/cms/resource/05/2849005_image2_1.jpg","firstimage2":"http://tong.visitkorea.or.kr/cms/resource/05/2849005_image3_1.jpg","tel":"02-482-7647","titleFull":"2022 남한산성 세계유산 활용 프로그램"},{"id":2667307,"title":"고창 핑크뮬리 축제","addr1":"전라북도 고창군 부안면 복분자로 307","latitude":35.5027352266,"longitude":126.6264384089,"eventstartdate":"20220915","eventenddate":"20221031","firstimage":"http://tong.visitkorea.or.kr/cms/resource/19/2735319_image2_1.jpg","firstimage2":"http://tong.visitkorea.or.kr/cms/resource/19/2735319_image2_1.jpg","tel":"0507-1375-3250","titleFull":"고창 핑크뮬리 축제"},{"id":232325,"title":"횡성한우축제","addr1":"강원도 횡성군 문화체육로 47 종합운동장","latitude":37.4958559276,"longitude":127.9877120195,"eventstartdate":"20220930","eventenddate":"20221004","firstimage":"http://tong.visitkorea.or.kr/cms/resource/07/2826707_image2_1.jpg","firstimage2":"http://tong.visitkorea.or.kr/cms/resource/07/2826707_image3_1.jpg","tel":"1522-1099","titleFull":"횡성한우축제"},{"id":506809,"title":"제22회 소래포구 축제","addr1":"인천광역시 남동구 장도로 86-17","latitude":37.397980675,"longitude":126.7393253184,"eventstartdate":"20221001","eventenddate":"20221003","firstimage":"http://tong.visitkorea.or.kr/cms/resource/56/2852356_image2_1.jpeg","firstimage2":"http://tong.visitkorea.or.kr/cms/resource/56/2852356_image3_1.jpeg","tel":"032-453-2142","titleFull":"제22회 소래포구 축제"},{"id":2852022,"title":"2022 레저스포츠페스티벌 in 구미","addr1":"경상북도 구미시 낙동제방길 200","latitude":36.1376965336,"longitude":128.3677280976,"eventstartdate":"20221001","eventenddate":"20221003","firstimage":"http://tong.visitkorea.or.kr/cms/resource/08/2852008_image2_1.jpg","firstimage2":"http://tong.visitkorea.or.kr/cms/resource/08/2852008_image3_1.jpg","tel":"02-2039-0049","titleFull":"2022 레저스포츠페스티벌 in 구미"},{"id":900168,"title":"2022 보은대추 온라인축제","addr1":"충청북도 보은군 보은읍 이평리","latitude":36.4863477992,"longitude":127.7234201582,"eventstartdate":"20221014","eventenddate":"20221023","firstimage":"http://tong.visitkorea.or.kr/cms/resource/90/2851890_image2_1.jpg","firstimage2":"http://tong.visitkorea.or.kr/cms/resource/90/2851890_image3_1.jpg","tel":"043-540-3393","titleFull":"2022 보은대추 온라인축제"},{"id":506600,"title":"산청한방약초축제","addr1":"경상남도 산청군 금서면 매촌리","latitude":35.4410407594,"longitude":127.8293195944,"eventstartdate":"20220930","eventenddate":"20221010","firstimage":"http://tong.visitkorea.or.kr/cms/resource/25/2689925_image2_1.png","firstimage2":"http://tong.visitkorea.or.kr/cms/resource/25/2689925_image2_1.png","tel":"055-970-6601~5","titleFull":"산청한방약초축제"},{"id":1846797,"title":"제10회 군산시간여행축제","addr1":"전북 군산시 중앙로1가 11-1","latitude":35.9878092242,"longitude":126.711690642,"eventstartdate":"20221007","eventenddate":"20221010","firstimage":"http://tong.visitkorea.or.kr/cms/resource/95/2843895_image2_1.jpg","firstimage2":"http://tong.visitkorea.or.kr/cms/resource/95/2843895_image3_1.jpg","tel":"063-454-3302","titleFull":"제10회 군산시간여행축제"},{"id":2753041,"title":"제2회 피나클랜드 국화축제","addr1":"충청남도 아산시 월선길 20-42","latitude":36.8725197718,"longitude":126.9263422708,"eventstartdate":"20220923","eventenddate":"20221127","firstimage":"http://tong.visitkorea.or.kr/cms/resource/42/2827642_image2_1.jpg","firstimage2":"http://tong.visitkorea.or.kr/cms/resource/42/2827642_image3_1.jpg","tel":"041-541-2582","titleFull":"제2회 피나클랜드 국화축제"},{"id":2555958,"title":"2022 전국생활문화축제","addr1":"강원도 강릉시 경강로2021번길 9-1 명주예술마당","latitude":37.7504520359,"longitude":128.8903006749,"eventstartdate":"20221028","eventenddate":"20221030","firstimage":"http://tong.visitkorea.or.kr/cms/resource/63/2847563_image2_1.jpg","firstimage2":"http://tong.visitkorea.or.kr/cms/resource/63/2847563_image3_1.jpg","tel":"033-647-6808","titleFull":"2022 전국생활문화축제"},{"id":2826119,"title":"2022 제2회 춘천술페스타","addr1":"강원도 춘천시 스포츠타운길399번길 25 KT&G상상마당 춘천아트센터","latitude":37.8735012283,"longitude":127.7021517672,"eventstartdate":"20221007","eventenddate":"20221008","firstimage":"http://tong.visitkorea.or.kr/cms/resource/94/2849894_image2_1.jpg","firstimage2":"http://tong.visitkorea.or.kr/cms/resource/94/2849894_image3_1.jpg","tel":"1644-4845","titleFull":"2022 제2회 춘천술페스타"},{"id":981658,"title":"대전효문화뿌리축제","addr1":"대전광역시 중구 뿌리공원로 47 효문화마을관리원","latitude":36.2853841653,"longitude":127.384511501,"eventstartdate":"20221007","eventenddate":"20221009","firstimage":"http://tong.visitkorea.or.kr/cms/resource/39/2849539_image2_1.jpg","firstimage2":"http://tong.visitkorea.or.kr/cms/resource/39/2849539_image3_1.jpg","tel":"042-606-6290","titleFull":"대전효문화뿌리축제"},{"id":2554814,"title":"2022 정조대왕 능행차 공동재현","addr1":"서울특별시 종로구 율곡로 99","latitude":37.5777031595,"longitude":126.9902446339,"eventstartdate":"20221008","eventenddate":"20221009","firstimage":"http://tong.visitkorea.or.kr/cms/resource/52/2849052_image2_1.jpg","firstimage2":"http://tong.visitkorea.or.kr/cms/resource/52/2849052_image3_1.jpg","tel":"02-786-0610(서울)<br>031-290-3617(수원)","titleFull":"2022 정조대왕 능행차 공동재현"},{"id":2508126,"title":"양주 회암사지 왕실축제","addr1":"경기도 양주시 회암사길 11 회암사지 박물관","latitude":37.8412745188,"longitude":127.1029879178,"eventstartdate":"20221001","eventenddate":"20221002","firstimage":"http://tong.visitkorea.or.kr/cms/resource/45/2848445_image2_1.jpg","firstimage2":"http://tong.visitkorea.or.kr/cms/resource/45/2848445_image3_1.jpg","tel":"02-782-2721","titleFull":"양주 회암사지 왕실축제"},{"id":2740109,"title":"고창 청농원 핑크뮬리가든","addr1":"전라북도 고창군 공음면 청천길 41-27","latitude":35.373642785,"longitude":126.5350719884,"eventstartdate":"20220916","eventenddate":"20221106","firstimage":"http://tong.visitkorea.or.kr/cms/resource/48/2848748_image2_1.jpg","firstimage2":"http://tong.visitkorea.or.kr/cms/resource/48/2848748_image3_1.jpg","tel":"063-561-6907","titleFull":"고창 청농원 핑크뮬리가든"},{"id":1019773,"title":"제주레저힐링축제","addr1":"제주특별자치도 제주시 조함해안로 525","latitude":33.5427390309,"longitude":126.6690845131,"eventstartdate":"20220916","eventenddate":"20221015","firstimage":"http://tong.visitkorea.or.kr/cms/resource/94/2848794_image2_1.jpg","firstimage2":"http://tong.visitkorea.or.kr/cms/resource/94/2848794_image3_1.jpg","tel":"(제주시관광과) 064-728-2751~6","titleFull":"제주레저힐링축제"},{"id":1849007,"title":"2022 세종축제","addr1":"세종특별자치시  호수공원길 155","latitude":36.4967663593,"longitude":127.2750155705,"eventstartdate":"20221007","eventenddate":"20221010","firstimage":"http://tong.visitkorea.or.kr/cms/resource/11/2848811_image2_1.jpg","firstimage2":"http://tong.visitkorea.or.kr/cms/resource/11/2848811_image3_1.jpg","tel":"044-850-0556","titleFull":"2022 세종축제"},{"id":1725993,"title":"고양가을꽃축제","addr1":"경기도 고양시 일산동구 호수로 595","latitude":37.6538792239,"longitude":126.7686654803,"eventstartdate":"20221001","eventenddate":"20221010","firstimage":"http://tong.visitkorea.or.kr/cms/resource/39/2848839_image2_1.jpg","firstimage2":"http://tong.visitkorea.or.kr/cms/resource/39/2848839_image3_1.jpg","tel":"031-908-7750~2","titleFull":"고양가을꽃축제"},{"id":2848913,"title":"영남알프스 숲페스타","addr1":"울산광역시 울주군 운문로 117-10","latitude":35.6257809842,"longitude":129.0491907604,"eventstartdate":"20220917","eventenddate":"20221023","firstimage":"http://tong.visitkorea.or.kr/cms/resource/75/2848875_image2_1.jpg","firstimage2":"http://tong.visitkorea.or.kr/cms/resource/75/2848875_image3_1.jpg","tel":"052-254-0522","titleFull":"영남알프스 숲페스타"},{"id":534220,"title":"연천 구석기축제","addr1":"경기도 연천군 전곡읍 양연로 1510","latitude":38.012281587,"longitude":127.0611506837,"eventstartdate":"20221007","eventenddate":"20221010","firstimage":"http://tong.visitkorea.or.kr/cms/resource/98/2689798_image2_1.png","firstimage2":"http://tong.visitkorea.or.kr/cms/resource/98/2689798_image2_1.png","tel":"031-839-2378","titleFull":"연천 구석기축제"},{"id":2618014,"title":"제4회 인제가을꽃축제","addr1":"강원도 인제군 북면 십이선녀탕길 16","latitude":38.1856540989,"longitude":128.3062095629,"eventstartdate":"20220930","eventenddate":"20221016","firstimage":"http://tong.visitkorea.or.kr/cms/resource/81/2848481_image2_1.jpg","firstimage2":"http://tong.visitkorea.or.kr/cms/resource/81/2848481_image3_1.jpg","tel":"033-460-8954~7","titleFull":"제4회 인제가을꽃축제"},{"id":2622679,"title":"예천국제스마트폰영화제","addr1":"경상북도 예천군 풍양면 삼강리길 41","latitude":36.5633189943,"longitude":128.3003470759,"eventstartdate":"20221015","eventenddate":"20221016","firstimage":"http://tong.visitkorea.or.kr/cms/resource/05/2822605_image2_1.jpg","firstimage2":"http://tong.visitkorea.or.kr/cms/resource/05/2822605_image3_1.jpg","tel":"054.655.8082","titleFull":"예천국제스마트폰영화제"},{"id":140752,"title":"서산해미읍성축제","addr1":"충청남도 서산시 남문2로 143 해미읍성","latitude":36.7136037541,"longitude":126.5503944175,"eventstartdate":"20221007","eventenddate":"20221009","firstimage":"http://tong.visitkorea.or.kr/cms/resource/49/2816649_image2_1.jpg","firstimage2":"http://tong.visitkorea.or.kr/cms/resource/49/2816649_image2_1.jpg","tel":"041-660-2697","titleFull":"서산해미읍성축제"},{"id":914138,"title":"제 59회 수원화성문화제","addr1":"경기도 수원시 팔달구 정조로 825","latitude":37.2872039225,"longitude":127.0120008348,"eventstartdate":"20221007","eventenddate":"20221009","firstimage":"http://tong.visitkorea.or.kr/cms/resource/96/2735596_image2_1.jpg","firstimage2":"http://tong.visitkorea.or.kr/cms/resource/96/2735596_image2_1.jpg","tel":"031-228-1010","titleFull":"제 59회 수원화성문화제"},{"id":506516,"title":"대구약령시한방문화축제","addr1":"대구광역시 중구 남성로 51-1","latitude":35.8673230099,"longitude":128.5923963501,"eventstartdate":"20221006","eventenddate":"20221010","firstimage":"http://tong.visitkorea.or.kr/cms/resource/70/2689770_image2_1.png","firstimage2":"http://tong.visitkorea.or.kr/cms/resource/70/2689770_image2_1.png","tel":"053-253-4729","titleFull":"대구약령시한방문화축제"},{"id":2846379,"title":"2022 D-MEDI FESTA","addr1":"대구광역시 중구 동성로2길 80 2.28 기념중앙공원","latitude":35.8693367591,"longitude":128.5971819845,"eventstartdate":"20221028","eventenddate":"20221030","firstimage":"http://tong.visitkorea.or.kr/cms/resource/74/2846374_image2_1.jpg","firstimage2":"http://tong.visitkorea.or.kr/cms/resource/74/2846374_image3_1.jpg","tel":"053-381-8071","titleFull":"2022 D-MEDI FESTA"},{"id":2774275,"title":"목포해상W쇼","addr1":"전라남도 목포시 평화로 82","latitude":34.7967007465,"longitude":126.4338006577,"eventstartdate":"20220603","eventenddate":"20221126","firstimage":"http://tong.visitkorea.or.kr/cms/resource/66/2817066_image2_1.jpg","firstimage2":"http://tong.visitkorea.or.kr/cms/resource/66/2817066_image2_1.jpg","tel":"061-270-8441","titleFull":"목포해상W쇼"},{"id":2841098,"title":"<이야기하는 아세안: 종교, 예술, 삶> 프로그램","addr1":"부산광역시 해운대구 좌동로 162 아세안문화원","latitude":35.1751757315,"longitude":129.18207501,"eventstartdate":"20220701","eventenddate":"20221231","firstimage":"http://tong.visitkorea.or.kr/cms/resource/88/2841088_image2_1.jpg","firstimage2":"http://tong.visitkorea.or.kr/cms/resource/88/2841088_image3_1.jpg","tel":"051-775-2001","titleFull":"<이야기하는 아세안: 종교, 예술, 삶> 프로그램"},{"id":2557798,"title":"이월드 가을축제 <인생꽃 사진관>","addr1":"대구광역시 달서구 두류공원로 200","latitude":35.8548989086,"longitude":128.5648463453,"eventstartdate":"20220917","eventenddate":"20221130","firstimage":"http://tong.visitkorea.or.kr/cms/resource/82/2847482_image2_1.jpg","firstimage2":"http://tong.visitkorea.or.kr/cms/resource/82/2847482_image3_1.jpg","tel":"053-620-0001","titleFull":"이월드 가을축제 <인생꽃 사진관>"},{"id":2847463,"title":"거제몽돌야시장","addr1":"경상남도 거제시 거제중앙로17길 6","latitude":34.8854673826,"longitude":128.6240397115,"eventstartdate":"20220805","eventenddate":"20221231","firstimage":"http://tong.visitkorea.or.kr/cms/resource/53/2847453_image2_1.jpg","firstimage2":"http://tong.visitkorea.or.kr/cms/resource/53/2847453_image3_1.jpg","tel":"055-633-0533","titleFull":"거제몽돌야시장"},{"id":2600837,"title":"제8회 흥페스티벌 - [RE:BOOT] 흥의 부활 ll","addr1":"서울특별시 중구 퇴계로34길 28 남산골한옥마을","latitude":37.5597775194,"longitude":126.9932865315,"eventstartdate":"20221003","eventenddate":"20220904","firstimage":"http://tong.visitkorea.or.kr/cms/resource/32/2847232_image2_1.jpg","firstimage2":"http://tong.visitkorea.or.kr/cms/resource/32/2847232_image3_1.jpg","tel":"02-6925-1255","titleFull":"제8회 흥페스티벌 - [RE:BOOT] 흥의 부활 ll"},{"id":2756253,"title":"2022 부여 세계유산 미디어아트 페스티벌","addr1":"충청남도 부여군 부소로 31 부소산성","latitude":36.2848009909,"longitude":126.9148563346,"eventstartdate":"20220916","eventenddate":"20221015","firstimage":"http://tong.visitkorea.or.kr/cms/resource/95/2847195_image2_1.jpg","firstimage2":"http://tong.visitkorea.or.kr/cms/resource/95/2847195_image3_1.jpg","tel":"070-4348-7715","titleFull":"2022 부여 세계유산 미디어아트 페스티벌"},{"id":140799,"title":"2022 부산국제록페스티벌","addr1":"부산광역시 사상구 삼락동","latitude":35.168839254,"longitude":128.9735266634,"eventstartdate":"20221001","eventenddate":"20221002","firstimage":"http://tong.visitkorea.or.kr/cms/resource/56/2841856_image2_1.jpg","firstimage2":"http://tong.visitkorea.or.kr/cms/resource/56/2841856_image3_1.jpg","tel":"고객 문의용 051-713-5000<br>티켓 관련 문의 051-713-5051<br>협찬 및 참가 관련 문의 051-713-5053","titleFull":"2022 부산국제록페스티벌"},{"id":506797,"title":"이천쌀문화축제","addr1":"경기도 이천시 공원로 48","latitude":37.1798991253,"longitude":127.4448702054,"eventstartdate":"20221019","eventenddate":"20221023","firstimage":"http://tong.visitkorea.or.kr/cms/resource/06/2847106_image2_1.jpg","firstimage2":"http://tong.visitkorea.or.kr/cms/resource/06/2847106_image3_1.jpg","tel":"031-644-4135~7","titleFull":"이천쌀문화축제"},{"id":2841074,"title":"영도커피페스티벌","addr1":"부산광역시 영도구 해양로301번길 55","latitude":35.0772042891,"longitude":129.0819836173,"eventstartdate":"20221104","eventenddate":"20221106","firstimage":"http://tong.visitkorea.or.kr/cms/resource/73/2841073_image2_1.jpg","firstimage2":"http://tong.visitkorea.or.kr/cms/resource/73/2841073_image3_1.jpg","tel":"051-419-4472, 051-714-7309","titleFull":"영도커피페스티벌"},{"id":2737577,"title":"2022 익산 미륵사지 세계유산 미디어아트 페스타","addr1":"전라북도 익산시 미륵사지로 362 국립익산박물관","latitude":36.0101982257,"longitude":127.0279090206,"eventstartdate":"20220903","eventenddate":"20221003","firstimage":"http://tong.visitkorea.or.kr/cms/resource/01/2846401_image2_1.jpg","firstimage2":"http://tong.visitkorea.or.kr/cms/resource/01/2846401_image3_1.jpg","tel":"063-859-5708 (익산시 역사문화재과)","titleFull":"2022 익산 미륵사지 세계유산 미디어아트 페스타"},{"id":2559560,"title":"휴애리 핑크뮬리 축제","addr1":"제주특별자치도 서귀포시 남원읍 신례동로 256","latitude":33.3085171454,"longitude":126.6344317363,"eventstartdate":"20220915","eventenddate":"20221115","firstimage":"http://tong.visitkorea.or.kr/cms/resource/91/2742091_image2_1.jpg","firstimage2":"http://tong.visitkorea.or.kr/cms/resource/91/2742091_image2_1.jpg","tel":"064-732-2114","titleFull":"휴애리 핑크뮬리 축제"},{"id":2846353,"title":"영덕 문화재 야행","addr1":"경상북도 영덕군 예주3길 7","latitude":36.537162379,"longitude":129.4072885579,"eventstartdate":"20221008","eventenddate":"20221009","firstimage":"http://tong.visitkorea.or.kr/cms/resource/37/2846237_image2_1.jpg","firstimage2":"http://tong.visitkorea.or.kr/cms/resource/37/2846237_image3_1.jpg","tel":"010-9239-1419","titleFull":"영덕 문화재 야행"},{"id":2846135,"title":"허브아일랜드 핑크뮬리축제","addr1":"경기도 포천시 청신로947번길 51","latitude":37.9662355012,"longitude":127.1334898415,"eventstartdate":"20220910","eventenddate":"20221031","firstimage":"http://tong.visitkorea.or.kr/cms/resource/17/2846117_image2_1.jpg","firstimage2":"http://tong.visitkorea.or.kr/cms/resource/17/2846117_image3_1.jpg","tel":"031-535-6494","titleFull":"허브아일랜드 핑크뮬리축제"},{"id":2846113,"title":"2022 New York Arts Society Festival in Seoul","addr1":"","latitude":0,"longitude":0,"eventstartdate":"20220801","eventenddate":"20221231","firstimage":"http://tong.visitkorea.or.kr/cms/resource/69/2846069_image2_1.jpg","firstimage2":"http://tong.visitkorea.or.kr/cms/resource/69/2846069_image3_1.jpg","tel":"kpmakorea@aol.com","titleFull":"2022 New York Arts Society Festival in Seoul"},{"id":2845946,"title":"2022 청춘, 커피페스티벌","addr1":"서울특별시 송파구 올림픽로 300 롯데월드타워앤드롯데월드몰","latitude":37.5142459111,"longitude":127.1040305171,"eventstartdate":"20221008","eventenddate":"20221009","firstimage":"http://tong.visitkorea.or.kr/cms/resource/41/2845941_image2_1.jpg","firstimage2":"http://tong.visitkorea.or.kr/cms/resource/41/2845941_image3_1.jpg","tel":"02-360-4520","titleFull":"2022 청춘, 커피페스티벌"},{"id":140911,"title":"홍성남당항대하축제","addr1":"충청남도 홍성군 서부면 남당항로 213-1","latitude":36.5395946637,"longitude":126.4721144284,"eventstartdate":"20220827","eventenddate":"20221030","firstimage":"http://tong.visitkorea.or.kr/cms/resource/59/2736259_image2_1.JPG","firstimage2":"http://tong.visitkorea.or.kr/cms/resource/59/2736259_image2_1.JPG","tel":"010-3288-9551","titleFull":"홍성남당항대하축제"},{"id":2651042,"title":"세계유산축전 - '제주 화산섬과 용암동굴'","addr1":"제주특별자치도 제주시 조천읍 선교로 569-36","latitude":33.4569020299,"longitude":126.7142575546,"eventstartdate":"20221001","eventenddate":"20221016","firstimage":"http://tong.visitkorea.or.kr/cms/resource/34/2845934_image2_1.jpg","firstimage2":"http://tong.visitkorea.or.kr/cms/resource/34/2845934_image3_1.jpg","tel":"064-755-2210","titleFull":"세계유산축전 - '제주 화산섬과 용암동굴'"},{"id":2843865,"title":"아세안 문화유산 VR 체험","addr1":"부산광역시 해운대구 좌동로 162 아세안문화원","latitude":35.1751757315,"longitude":129.18207501,"eventstartdate":"20220701","eventenddate":"20221231","firstimage":"http://tong.visitkorea.or.kr/cms/resource/49/2843849_image2_1.jpg","firstimage2":"http://tong.visitkorea.or.kr/cms/resource/49/2843849_image3_1.jpg","tel":"051-775-2001","titleFull":"아세안 문화유산 VR 체험"},{"id":789869,"title":"제56회 처용문화제","addr1":"울산광역시 중구 태화동","latitude":35.5539410733,"longitude":129.3043288142,"eventstartdate":"20221008","eventenddate":"20221010","firstimage":"http://tong.visitkorea.or.kr/cms/resource/30/2845430_image2_1.jpg","firstimage2":"http://tong.visitkorea.or.kr/cms/resource/30/2845430_image3_1.jpg","tel":"052-259-7934","titleFull":"제56회 처용문화제"},{"id":2610469,"title":"태화강공연축제「나드리」","addr1":"울산광역시 중구 태화강국가정원길 107","latitude":35.5519493066,"longitude":129.2871025957,"eventstartdate":"20221008","eventenddate":"20221012","firstimage":"http://tong.visitkorea.or.kr/cms/resource/29/2845429_image2_1.png","firstimage2":"http://tong.visitkorea.or.kr/cms/resource/29/2845429_image3_1.png","tel":"052-259-7933","titleFull":"태화강공연축제「나드리」"},{"id":2841134,"title":"2022 울산문화축전","addr1":"울산광역시 중구 염포로 55 울산종합운동장","latitude":35.5610160884,"longitude":129.3473804138,"eventstartdate":"20221007","eventenddate":"20221013","firstimage":"http://tong.visitkorea.or.kr/cms/resource/33/2841133_image2_1.jpg","firstimage2":"http://tong.visitkorea.or.kr/cms/resource/33/2841133_image3_1.jpg","tel":"052-259-7932","titleFull":"2022 울산문화축전"},{"id":1957556,"title":"창경궁 야간 상시관람","addr1":"서울특별시 종로구 창경궁로 185","latitude":37.5807973206,"longitude":126.994505269,"eventstartdate":"20210101","eventenddate":"20231231","firstimage":"http://tong.visitkorea.or.kr/cms/resource/48/2597548_image2_1.jpg","firstimage2":"http://tong.visitkorea.or.kr/cms/resource/48/2597548_image3_1.jpg","tel":"02-762-4868","titleFull":"창경궁 야간 상시관람"},{"id":1700426,"title":"파주 북소리","addr1":"경기도 파주시 회동길 145","latitude":37.710296206,"longitude":126.6873602144,"eventstartdate":"20221021","eventenddate":"20221023","firstimage":"http://tong.visitkorea.or.kr/cms/resource/45/2844345_image2_1.JPG","firstimage2":"http://tong.visitkorea.or.kr/cms/resource/45/2844345_image3_1.JPG","tel":"031-955-0055","titleFull":"파주 북소리"},{"id":2436040,"title":"2022 청정임산물 대축제","addr1":"대전광역시 서구 둔산대로 169 한밭수목원","latitude":36.3659250159,"longitude":127.3879840082,"eventstartdate":"20220824","eventenddate":"20221016","firstimage":"http://tong.visitkorea.or.kr/cms/resource/33/2844333_image2_1.jpg","firstimage2":"http://tong.visitkorea.or.kr/cms/resource/33/2844333_image3_1.jpg","tel":"02-2058-1070","titleFull":"2022 청정임산물 대축제"},{"id":2615461,"title":"2022년 경복궁 생과방","addr1":"서울특별시 종로구 사직로 161 경복궁","latitude":37.5788944508,"longitude":126.9770319156,"eventstartdate":"20220907","eventenddate":"20221020","firstimage":"http://tong.visitkorea.or.kr/cms/resource/06/2844306_image2_1.jpg","firstimage2":"http://tong.visitkorea.or.kr/cms/resource/06/2844306_image3_1.jpg","tel":"02-3210-3507","titleFull":"2022년 경복궁 생과방"},{"id":1100492,"title":"2022 고양호수예술축제 GSAF2022","addr1":"경기도 고양시 일산동구 호수로 595","latitude":37.6538792239,"longitude":126.7686654803,"eventstartdate":"20220930","eventenddate":"20221003","firstimage":"http://tong.visitkorea.or.kr/cms/resource/65/2722465_image2_1.jpg","firstimage2":"http://tong.visitkorea.or.kr/cms/resource/65/2722465_image2_1.jpg","tel":"031-960-9684","titleFull":"2022 고양호수예술축제 GSAF2022"},{"id":506690,"title":"안성맞춤 남사당 바우덕이 축제","addr1":"경기도 안성시 보개면 남사당로 198-2","latitude":37.0318776686,"longitude":127.3101782044,"eventstartdate":"20220930","eventenddate":"20221003","firstimage":"http://tong.visitkorea.or.kr/cms/resource/61/2844261_image2_1.jpg","firstimage2":"http://tong.visitkorea.or.kr/cms/resource/61/2844261_image3_1.jpg","tel":"031-678-2511~5","titleFull":"안성맞춤 남사당 바우덕이 축제"},{"id":140930,"title":"제61회 탐라문화제","addr1":"제주특별자치도 제주시 중앙로 2","latitude":33.5181838831,"longitude":126.5246670689,"eventstartdate":"20221006","eventenddate":"20221010","firstimage":"http://tong.visitkorea.or.kr/cms/resource/58/2844258_image2_1.jpg","firstimage2":"http://tong.visitkorea.or.kr/cms/resource/58/2844258_image3_1.jpg","tel":"064-753-3287","titleFull":"제61회 탐라문화제"},{"id":2730685,"title":"대한민국 목재산업 박람회(WOOD FAIR 2022)","addr1":"대전광역시 유성구 엑스포로 107 대전컨벤션센터","latitude":36.3750212633,"longitude":127.391694541,"eventstartdate":"20220929","eventenddate":"20221002","firstimage":"http://tong.visitkorea.or.kr/cms/resource/60/2844260_image2_1.png","firstimage2":"http://tong.visitkorea.or.kr/cms/resource/60/2844260_image3_1.png","tel":"02-848-0199","titleFull":"대한민국 목재산업 박람회(WOOD FAIR 2022)"},{"id":2403896,"title":"2022 태안 가을꽃박람회","addr1":"충청남도 태안군 안면읍 꽃지해안로 400","latitude":36.5011689948,"longitude":126.3367943161,"eventstartdate":"20220901","eventenddate":"20221031","firstimage":"http://tong.visitkorea.or.kr/cms/resource/29/2836329_image2_1.JPG","firstimage2":"http://tong.visitkorea.or.kr/cms/resource/29/2836329_image3_1.JPG","tel":"041-675-5533","titleFull":"2022 태안 가을꽃박람회"},{"id":2757584,"title":"2023 강릉 세계합창대회","addr1":"강원도 강릉시 죽헌길 7","latitude":37.7707215201,"longitude":128.8701379764,"eventstartdate":"20230703","eventenddate":"20230713","firstimage":"http://tong.visitkorea.or.kr/cms/resource/78/2811478_image2_1.jpg","firstimage2":"http://tong.visitkorea.or.kr/cms/resource/78/2811478_image2_1.jpg","tel":"033-640-2719","titleFull":"2023 강릉 세계합창대회"},{"id":2713558,"title":"강원세계산림엑스포","addr1":"강원도 고성군 토성면 잼버리로 244","latitude":38.2236839691,"longitude":128.5001657397,"eventstartdate":"20230504","eventenddate":"20230606","firstimage":"http://tong.visitkorea.or.kr/cms/resource/24/2804924_image2_1.jpg","firstimage2":"http://tong.visitkorea.or.kr/cms/resource/24/2804924_image2_1.jpg","tel":"033-818-2158","titleFull":"강원세계산림엑스포"},{"id":2778356,"title":"2022영주세계풍기인삼엑스포","addr1":"경상북도 영주시 신재로 964","latitude":36.8677160182,"longitude":128.5193160013,"eventstartdate":"20220930","eventenddate":"20221023","firstimage":"http://tong.visitkorea.or.kr/cms/resource/79/2828079_image2_1.jpg","firstimage2":"http://tong.visitkorea.or.kr/cms/resource/79/2828079_image3_1.jpg","tel":"054-639-4801","titleFull":"2022영주세계풍기인삼엑스포"},{"id":1291408,"title":"2022년 창덕궁 달빛기행","addr1":"서울특별시 종로구 율곡로 53 (학)덕성학원 해영회관","latitude":37.5766531897,"longitude":126.9851423515,"eventstartdate":"20220901","eventenddate":"20221028","firstimage":"http://tong.visitkorea.or.kr/cms/resource/81/2815681_image2_1.jpg","firstimage2":"http://tong.visitkorea.or.kr/cms/resource/81/2815681_image2_1.jpg","tel":"02-3210-4804","titleFull":"2022년 창덕궁 달빛기행"},{"id":2842411,"title":"2022 숲 속 모두의, 포레포레","addr1":"경기도 수원시 권선구 서둔로 166","latitude":37.2665807612,"longitude":126.9811903187,"eventstartdate":"20220827","eventenddate":"20221126","firstimage":"http://tong.visitkorea.or.kr/cms/resource/08/2842408_image2_1.jpg","firstimage2":"http://tong.visitkorea.or.kr/cms/resource/08/2842408_image3_1.jpg","tel":"031-296-1863/1987","titleFull":"2022 숲 속 모두의, 포레포레"},{"id":604144,"title":"제19회 자라섬재즈페스티벌","addr1":"경기도 가평군 가평읍 달전리 1-1","latitude":37.810494354,"longitude":127.5354271394,"eventstartdate":"20221001","eventenddate":"20221003","firstimage":"http://tong.visitkorea.or.kr/cms/resource/76/2844176_image2_1.jpg","firstimage2":"http://tong.visitkorea.or.kr/cms/resource/76/2844176_image3_1.jpg","tel":"031-581-2813~4","titleFull":"제19회 자라섬재즈페스티벌"},{"id":574285,"title":"제24회 김제지평선축제","addr1":"전라북도 김제시 벽골제로 442","latitude":35.7540632714,"longitude":126.8522869016,"eventstartdate":"20220929","eventenddate":"20221003","firstimage":"http://tong.visitkorea.or.kr/cms/resource/15/2689815_image2_1.png","firstimage2":"http://tong.visitkorea.or.kr/cms/resource/15/2689815_image2_1.png","tel":"063)540-3035~3038","titleFull":"제24회 김제지평선축제"},{"id":513291,"title":"광화문국제아트페스티벌","addr1":"서울특별시 종로구 세종대로 175","latitude":37.5721757834,"longitude":126.97683768,"eventstartdate":"20221102","eventenddate":"20221115","firstimage":"http://tong.visitkorea.or.kr/cms/resource/90/2037790_image2_1.jpg","firstimage2":"http://tong.visitkorea.or.kr/cms/resource/90/2037790_image3_1.jpg","tel":"02-723-9484~7","titleFull":"광화문국제아트페스티벌"},{"id":2392105,"title":"2022 달성 대구현대미술제","addr1":"대구광역시 달성군 강정본길 57 강정보통합관리센터","latitude":35.8412902808,"longitude":128.4649721907,"eventstartdate":"20220902","eventenddate":"20221003","firstimage":"http://tong.visitkorea.or.kr/cms/resource/05/2843905_image2_1.jpg","firstimage2":"http://tong.visitkorea.or.kr/cms/resource/05/2843905_image3_1.jpg","tel":"053)659-4282","titleFull":"2022 달성 대구현대미술제"},{"id":2435280,"title":"제7회 강진만 춤추는 갈대축제","addr1":"전라남도 강진군 생태공원길 47 남포축구장","latitude":34.6205428186,"longitude":126.7734749863,"eventstartdate":"20221028","eventenddate":"20221106","firstimage":"http://tong.visitkorea.or.kr/cms/resource/73/2843773_image2_1.jpg","firstimage2":"http://tong.visitkorea.or.kr/cms/resource/73/2843773_image3_1.jpg","tel":"061-434-7795","titleFull":"제7회 강진만 춤추는 갈대축제"},{"id":2661632,"title":"세계유산축전","addr1":"서울특별시 종로구 사직로 161","latitude":37.5788944508,"longitude":126.9770319156,"eventstartdate":"20220903","eventenddate":"20221022","firstimage":"http://tong.visitkorea.or.kr/cms/resource/71/2843571_image2_1.jpg","firstimage2":"http://tong.visitkorea.or.kr/cms/resource/71/2843571_image3_1.jpg","tel":"02-2270-1272","titleFull":"세계유산축전"},{"id":1998564,"title":"궁중문화축전","addr1":"서울특별시 종로구 사직로 161","latitude":37.5788222356,"longitude":126.9769930325,"eventstartdate":"20221001","eventenddate":"20221009","firstimage":"http://tong.visitkorea.or.kr/cms/resource/07/2718907_image2_1.png","firstimage2":"http://tong.visitkorea.or.kr/cms/resource/07/2718907_image2_1.png","tel":"02-3210-4683","titleFull":"궁중문화축전"},